{"version": 0.6, "generator": "Overpass API 0.7.62.8 e802775f", "osm3s": {"timestamp_osm_base": "2025-09-03T20:35:55Z", "timestamp_areas_base": "2025-09-03T17:14:15Z", "copyright": "The data included in this document is from www.openstreetmap.org. The data is made available under ODbL."}, "elements": [{"type": "node", "id": 69479726, "lat": 42.3488466, "lon": -71.1343789, "tags": {"light_rail": "yes", "name": "Griggs Street", "network": "MBTA", "operator": "Massachusetts Bay Transportation Authority", "operator:short": "MBTA", "operator:wikidata": "Q171985", "public_transport": "station", "railway": "halt", "station": "light_rail", "wikidata": "Q5608979"}}, {"type": "node", "id": 69480627, "lat": 42.3733705, "lon": -71.1189433, "tags": {"name": "Harvard", "network": "MBTA", "network:guid": "US-MA-MBTA", "network:short": "MBTA", "network:wikidata": "Q171985", "network:wikipedia": "en:Massachusetts Bay Transportation Authority", "operator": "Massachusetts Bay Transportation Authority", "operator:short": "MBTA", "operator:wikidata": "Q171985", "public_transport": "station", "railway": "station", "station": "subway", "subway": "yes", "train": "yes", "url": "http://www.mbta.com/schedules_and_maps/subway/lines/stations/?stopId=12084", "wheelchair": "yes", "wikidata": "Q5264971"}}, {"type": "node", "id": 69481020, "lat": 42.3410445, "lon": -71.1257713, "tags": {"light_rail": "yes", "name": "Summit Avenue", "network": "MBTA", "operator": "Massachusetts Bay Transportation Authority", "operator:short": "MBTA", "operator:wikidata": "Q171985", "public_transport": "station", "railway": "halt", "station": "light_rail"}}, {"type": "node", "id": 69481065, "lat": 42.3300185, "lon": -71.0571623, "tags": {"name": "Andrew", "network": "MBTA", "network:wikidata": "Q171985", "operator": "Massachusetts Bay Transportation Authority", "operator:short": "MBTA", "operator:wikidata": "Q171985", "public_transport": "station", "railway": "station", "station": "subway", "subway": "yes", "train": "yes", "wheelchair": "yes", "wikidata": "Q4756160"}}, {"type": "node", "id": 69481493, "lat": 42.3316217, "lon": -71.1119274, "tags": {"light_rail": "yes", "name": "Riverway", "network": "MBTA", "operator": "Massachusetts Bay Transportation Authority", "operator:short": "MBTA", "operator:wikidata": "Q171985", "public_transport": "station", "railway": "halt", "station": "light_rail", "wikidata": "Q7338796"}}, {"type": "node", "id": 69481663, "lat": 42.3440124, "lon": -71.114352, "tags": {"light_rail": "yes", "name": "Kent Street", "network": "MBTA", "operator": "Massachusetts Bay Transportation Authority", "operator:short": "MBTA", "operator:wikidata": "Q171985", "public_transport": "station", "railway": "halt", "station": "light_rail", "wheelchair": "no", "wikidata": "Q6391931"}}, {"type": "node", "id": 69481739, "lat": 42.3480379, "lon": -71.0876524, "tags": {"access": "yes", "addr:city": "Boston", "addr:housenumber": "360", "addr:postcode": "02115", "addr:state": "MA", "addr:street": "Newbury Street", "air_conditioning": "no", "baby_feeding": "no", "bicycle": "no", "emergency_telephone_code": "+1-617-222-1212", "level": "-1;-2", "light_rail": "yes", "lit": "yes", "name": "Hynes Convention Center", "network": "MBTA", "network:wikidata": "Q171985", "operator": "Massachusetts Bay Transportation Authority", "operator:short": "MBTA", "operator:wikidata": "Q171985", "parking": "no", "public_transport": "station", "railway": "station", "start_date": "1914-10-03", "station": "light_rail", "supervised": "yes", "tracks": "2", "train": "yes", "website": "https://www.mbta.com/stops/place-hymnl", "wheelchair": "no", "wikidata": "Q11221237", "wikipedia": "en:Hynes Convention Center station"}}, {"type": "node", "id": 69481819, "lat": 42.3346084, "lon": -71.1036922, "tags": {"light_rail": "yes", "name": "Brigham Circle", "network": "MBTA", "operator": "Massachusetts Bay Transportation Authority", "operator:short": "MBTA", "operator:wikidata": "Q171985", "public_transport": "station", "railway": "halt", "station": "light_rail", "wikidata": "Q4967294"}}, {"type": "node", "id": 69482402, "lat": 42.3395019, "lon": -71.1348841, "tags": {"light_rail": "yes", "name": "Washington Square", "network": "MBTA", "operator": "Massachusetts Bay Transportation Authority", "operator:short": "MBTA", "operator:wikidata": "Q171985", "public_transport": "station", "railway": "halt", "station": "light_rail", "wikidata": "Q7972202"}}, {"type": "node", "id": 69482704, "lat": 42.338532, "lon": -71.1384521, "tags": {"light_rail": "yes", "name": "Tappan Street", "network": "MBTA", "operator": "Massachusetts Bay Transportation Authority", "operator:short": "MBTA", "operator:wikidata": "Q171985", "public_transport": "station", "railway": "halt", "station": "light_rail", "wikidata": "Q7684756"}}, {"type": "node", "id": 69483139, "lat": 42.3400343, "lon": -71.1287941, "tags": {"light_rail": "yes", "name": "Brandon Hall", "network": "MBTA", "operator": "Massachusetts Bay Transportation Authority", "operator:short": "MBTA", "operator:wikidata": "Q171985", "public_transport": "station", "railway": "halt", "station": "light_rail", "wikidata": "Q4956886"}}, {"type": "node", "id": 69483500, "lat": 42.3406469, "lon": -71.1509237, "tags": {"light_rail": "yes", "name": "Chiswick Road", "network": "MBTA", "operator": "Massachusetts Bay Transportation Authority", "operator:short": "MBTA", "operator:wikidata": "Q171985", "public_transport": "station", "railway": "halt", "station": "light_rail", "wikidata": "Q5102171"}}, {"type": "node", "id": 69483568, "lat": 42.3336254, "lon": -71.1059084, "tags": {"light_rail": "yes", "name": "Fenwood Road", "network": "MBTA", "operator": "Massachusetts Bay Transportation Authority", "operator:short": "MBTA", "operator:wikidata": "Q171985", "public_transport": "station", "railway": "halt", "station": "light_rail", "wikidata": "Q5396766"}}, {"type": "node", "id": 69483940, "lat": 42.3486046, "lon": -71.1376139, "tags": {"internet_access": "no", "light_rail": "yes", "name": "Allston Street", "network": "MBTA", "operator": "Massachusetts Bay Transportation Authority", "operator:short": "MBTA", "operator:wikidata": "Q171985", "public_transport": "station", "railway": "halt", "station": "light_rail", "wikidata": "Q2880257"}}, {"type": "node", "id": 69485017, "lat": 42.3440492, "lon": -71.1426244, "tags": {"light_rail": "yes", "name": "Washington Street", "network": "MBTA", "operator": "Massachusetts Bay Transportation Authority", "operator:short": "MBTA", "operator:wikidata": "Q171985", "public_transport": "station", "railway": "halt", "station": "light_rail", "wikidata": "Q7972315"}}, {"type": "node", "id": 69485622, "lat": 42.3325698, "lon": -71.1169495, "tags": {"access": "yes", "addr:city": "Brookline", "addr:housenumber": "31", "addr:postcode": "02445", "addr:state": "MA", "addr:street": "Station Street", "air_conditioning": "no", "bicycle": "no", "bicycle_parking": "yes", "blind": "yes", "colour": "green", "covered": "no", "elevator": "no", "emergency_telephone_code": "+1-617-222-1212", "fee": "yes", "foot": "yes", "indoor": "no", "internet_access": "no", "level": "0", "light_rail": "yes", "lit": "yes", "location": "outdoor", "name": "Brookline Village", "network": "MBTA", "network:wikidata": "Q171985", "operator": "Massachusetts Bay Transportation Authority", "operator:short": "MBTA", "operator:type": "government", "operator:wikidata": "Q171985", "parking": "yes", "phone": "+1-617-222-3200", "public_transport": "station", "railway": "station", "smoking": "no", "start_date": "1959-07-04", "station": "light_rail", "supervised": "no", "tracks": "2", "train": "yes", "website": "https://www.mbta.com/stops/place-bvmnl", "wheelchair": "yes", "wikidata": "Q4974705", "wikipedia": "en:Brookline Village station"}}, {"type": "node", "id": 69486291, "lat": 42.300732, "lon": -71.114109, "tags": {"name": "Forest Hills", "network": "MBTA", "network:guid": "US-MA-MBTA", "network:short": "MBTA", "network:wikidata": "Q171985", "network:wikipedia": "en:Massachusetts Bay Transportation Authority", "operator": "Massachusetts Bay Transportation Authority", "operator:short": "MBTA", "operator:wikidata": "Q171985", "public_transport": "station", "railway": "station", "station": "subway", "subway": "yes", "train": "yes", "wheelchair": "yes", "wikidata": "Q2947194"}}, {"type": "node", "id": 69486701, "lat": 42.233274, "lon": -71.0068894, "tags": {"name": "Quincy Adams", "network": "MBTA", "network:wikidata": "Q171985", "operator": "MBTA", "platforms": "2", "public_transport": "station", "railway": "station", "station": "subway", "subway": "yes", "train": "yes", "wikidata": "Q7272113"}}, {"type": "node", "id": 69486909, "lat": 42.3369849, "lon": -71.1456041, "tags": {"light_rail": "yes", "name": "Englewood Avenue", "network": "MBTA", "operator": "Massachusetts Bay Transportation Authority", "operator:short": "MBTA", "operator:wikidata": "Q171985", "public_transport": "station", "railway": "halt", "station": "light_rail", "wikidata": "Q5378118"}}, {"type": "node", "id": 69487423, "lat": 42.3740156, "lon": -71.0706946, "tags": {"name": "Community College", "network": "MBTA", "network:guid": "US-MA-MBTA", "network:short": "MBTA", "network:wikidata": "Q171985", "network:wikipedia": "en:Massachusetts Bay Transportation Authority", "operator": "Massachusetts Bay Transportation Authority", "operator:short": "MBTA", "operator:wikidata": "Q171985", "public_transport": "station", "railway": "station", "station": "subway", "subway": "yes", "wheelchair": "yes", "wikidata": "Q3562508", "wikimedia_commons": "Category:Community College station", "wikipedia": "en:Community College station"}}, {"type": "node", "id": 69488890, "lat": 42.3396668, "lon": -71.1311491, "tags": {"light_rail": "yes", "name": "Fairbanks Street", "network": "MBTA", "operator": "Massachusetts Bay Transportation Authority", "operator:short": "MBTA", "operator:wikidata": "Q171985", "public_transport": "station", "railway": "halt", "station": "light_rail"}}, {"type": "node", "id": 69489103, "lat": 42.2675657, "lon": -71.0924273, "tags": {"addr:city": "Boston", "addr:housenumber": "500", "addr:postcode": "02126", "addr:state": "MA", "addr:street": "River Street", "bus": "yes", "light_rail": "yes", "name": "Mattapan", "network": "MBTA", "network:wikidata": "Q171985", "operator": "Massachusetts Bay Transportation Authority", "operator:short": "MBTA", "operator:wikidata": "Q171985", "public_transport": "station", "railway": "station", "station": "light_rail", "train": "yes", "wikidata": "Q2889476"}}, {"type": "node", "id": 69489300, "lat": 42.3486367, "lon": -71.1402269, "tags": {"light_rail": "yes", "name": "Warren Street", "network": "MBTA", "operator": "Massachusetts Bay Transportation Authority", "operator:short": "MBTA", "operator:wikidata": "Q171985", "public_transport": "station", "railway": "halt", "station": "light_rail", "wikidata": "Q5843108"}}, {"type": "node", "id": 69489378, "lat": 42.3517313, "lon": -71.0712808, "tags": {"level": "-2", "light_rail": "yes", "name": "Arlington", "network": "MBTA", "network:guid": "US-MA-MBTA", "network:short": "MBTA", "network:wikidata": "Q171985", "network:wikipedia": "en:Massachusetts Bay Transportation Authority", "operator": "Massachusetts Bay Transportation Authority", "operator:short": "MBTA", "operator:wikidata": "Q171985", "public_transport": "station", "railway": "station", "station": "light_rail", "train": "yes", "wheelchair": "yes", "wikidata": "Q4792268"}}, {"type": "node", "id": 69489609, "lat": 42.3504313, "lon": -71.1310251, "tags": {"light_rail": "yes", "name": "Harvard Avenue", "network": "MBTA", "operator": "Massachusetts Bay Transportation Authority", "operator:short": "MBTA", "operator:wikidata": "Q171985", "public_transport": "station", "railway": "halt", "station": "light_rail", "wikidata": "Q5676284"}}, {"type": "node", "id": 69489847, "lat": 42.3492264, "lon": -71.1000939, "tags": {"light_rail": "yes", "name": "Blandford Street", "network": "MBTA", "network:guid": "US-MA-MBTA", "network:short": "MBTA", "network:wikidata": "Q171985", "network:wikipedia": "en:Massachusetts Bay Transportation Authority", "operator": "Massachusetts Bay Transportation Authority", "operator:short": "MBTA", "operator:wikidata": "Q171985", "public_transport": "station", "railway": "halt", "station": "light_rail", "wikidata": "Q4925022"}}, {"type": "node", "id": 69490387, "lat": 42.3421622, "lon": -71.1213029, "tags": {"light_rail": "yes", "name": "Coolidge Corner", "network": "MBTA", "operator": "Massachusetts Bay Transportation Authority", "operator:short": "MBTA", "operator:wikidata": "Q171985", "public_transport": "station", "railway": "halt", "station": "light_rail", "wheelchair": "yes", "wikidata": "Q5167461"}}, {"type": "node", "id": 69491687, "lat": 42.3294217, "lon": -71.1109973, "tags": {"light_rail": "yes", "name": "Back of the Hill", "network": "MBTA", "operator": "Massachusetts Bay Transportation Authority", "operator:short": "MBTA", "operator:wikidata": "Q171985", "public_transport": "station", "railway": "halt", "station": "light_rail", "wikidata": "Q4839332"}}, {"type": "node", "id": 69491775, "lat": 42.341582, "lon": -71.1462998, "tags": {"light_rail": "yes", "name": "Sutherland Road", "network": "MBTA", "operator": "Massachusetts Bay Transportation Authority", "operator:short": "MBTA", "operator:wikidata": "Q171985", "public_transport": "station", "railway": "halt", "station": "light_rail", "wikidata": "Q7649999"}}, {"type": "node", "id": 69493115, "lat": 42.3427676, "lon": -71.0849488, "tags": {"access": "yes", "addr:city": "Boston", "addr:postcode": "02115", "addr:state": "MA", "addr:street": "Huntington Avenue", "air_conditioning": "no", "baby_feeding": "no", "bicycle": "no", "bicycle_parking": "no", "contact:twitter": "https://twitter.com/MBTA", "covered": "yes", "fee": "yes", "foot": "designated", "internet_access": "no", "level": "-1", "light_rail": "yes", "lit": "yes", "location": "underground", "motor_vehicle": "no", "name": "Symphony", "network": "MBTA", "network:wikidata": "Q171985", "operator": "Massachusetts Bay Transportation Authority", "operator:short": "MBTA", "operator:wikidata": "Q171985", "parking": "no", "phone": "+1-617-222-3200", "public_transport": "station", "railway": "station", "start_date": "1941-02-16", "station": "light_rail", "subway": "station", "supervised": "yes", "tracks": "2", "train": "yes", "website": "https://www.mbta.com/stops/place-symcl", "wheelchair": "no", "wikidata": "Q5549774", "wikipedia": "en:Symphony station"}}, {"type": "node", "id": 69493249, "lat": 42.4265943, "lon": -71.0743731, "tags": {"name": "Malden Center", "network": "MBTA", "network:guid": "US-MA-MBTA", "network:short": "MBTA", "network:wikidata": "Q171985", "network:wikipedia": "en:Massachusetts Bay Transportation Authority", "operator": "Massachusetts Bay Transportation Authority", "operator:short": "MBTA", "operator:wikidata": "Q171985", "public_transport": "station", "railway": "station", "station": "subway", "subway": "yes", "train": "yes", "wheelchair": "yes"}}, {"type": "node", "id": 69494687, "lat": 42.3425292, "lon": -71.057125, "tags": {"name": "Broadway", "network": "MBTA", "network:wikidata": "Q171985", "operator": "Massachusetts Bay Transportation Authority", "operator:short": "MBTA", "operator:wikidata": "Q171985", "public_transport": "station", "railway": "station", "station": "subway", "subway": "yes", "train": "yes", "wikidata": "Q4972390"}}, {"type": "node", "id": 69495531, "lat": 42.3456782, "lon": -71.0813915, "tags": {"addr:city": "Boston", "addr:postcode": "02199", "addr:state": "MA", "addr:street": "Huntington Avenue", "air_conditioning": "no", "attribution": "Office of Geographic and Environmental Information (MassGIS)", "bicycle": "no", "covered": "yes", "foot": "designated", "indoor": "yes", "internet_access": "no", "level": "0;-1;-2", "light_rail": "yes", "lit": "yes", "location": "underground", "name": "Prudential", "network": "MBTA", "operator": "Massachusetts Bay Transportation Authority", "operator:short": "MBTA", "operator:wikidata": "Q171985", "public_transport": "station", "railway": "halt", "start_date": "1941-02-16", "station": "light_rail", "stroller": "yes", "supervised": "yes", "website": "https://www.mbta.com/stops/place-prmnl", "wheelchair": "yes", "wikidata": "Q7252977", "wikipedia": "en:Prudential station"}}, {"type": "node", "id": 69495717, "lat": 42.338352, "lon": -71.1528837, "tags": {"light_rail": "yes", "name": "Chestnut Hill Avenue", "network": "MBTA", "operator": "Massachusetts Bay Transportation Authority", "operator:short": "MBTA", "operator:wikidata": "Q171985", "public_transport": "station", "railway": "halt", "station": "light_rail", "wikidata": "Q5093944"}}, {"type": "node", "id": 69496958, "lat": 42.3489438, "lon": -71.0952999, "tags": {"level": "-2", "light_rail": "yes", "name": "Kenmore", "network": "MBTA", "network:wikidata": "Q171985", "operator": "Massachusetts Bay Transportation Authority", "operator:short": "MBTA", "operator:wikidata": "Q171985", "public_transport": "station", "railway": "station", "station": "light_rail", "train": "yes", "wikidata": "Q6389462"}}, {"type": "node", "id": 69504191, "lat": 42.3743325, "lon": -71.0302794, "tags": {"access": "yes", "addr:city": "Boston", "addr:postcode": "02128", "addr:state": "MA", "addr:street": "Transportation Way", "air_conditioning": "no", "architect": "[architect]", "bicycle": "yes", "bicycle_parking": "no", "blind": "yes", "colour": "blue", "covered": "yes", "elevator": "yes", "emergency_telephone_code": "+1-617-222-1212", "fee": "yes", "foot": "yes", "indoor": "yes", "internet_access": "no", "level": "0;1", "lit": "yes", "location": "indoor", "name": "Airport", "network": "MBTA", "network:wikidata": "Q171985", "old_name": "[old_name]", "opening_hours": "Mo-Su 04:55-24:00", "operator": "Massachusetts Bay Transportation Authority", "operator:short": "MBTA", "operator:type": "government", "operator:wikidata": "Q171985", "parking": "no", "phone": "+1-617-222-3200", "platforms": "2", "public_transport": "station", "railway": "station", "smoking": "no", "start_date": "1952-01-05", "station": "subway", "subway": "yes", "supervised": "yes", "surface": "concrete", "tracks": "2", "train": "yes", "website": "https://www.mbta.com/stops/subway", "wheelchair": "yes", "wikidata": "Q4241859", "wikipedia": "en:Airport station (MBTA)"}}, {"type": "node", "id": 69504367, "lat": 42.3868747, "lon": -71.0047749, "tags": {"name": "Orient Heights", "network": "MBTA", "network:guid": "US-MA-MBTA", "network:short": "MBTA", "network:wikidata": "Q171985", "network:wikipedia": "en:Massachusetts Bay Transportation Authority", "operator": "Massachusetts Bay Transportation Authority", "operator:short": "MBTA", "operator:wikidata": "Q171985", "public_transport": "station", "railway": "station", "station": "subway", "subway": "yes", "train": "yes", "wheelchair": "yes", "wikidata": "Q4163495"}}, {"type": "node", "id": 69504387, "lat": 42.3796991, "lon": -71.0228172, "tags": {"name": "Wood Island", "network": "MBTA", "network:guid": "US-MA-MBTA", "network:short": "MBTA", "network:wikidata": "Q171985", "network:wikipedia": "en:Massachusetts Bay Transportation Authority", "operator": "Massachusetts Bay Transportation Authority", "operator:short": "MBTA", "operator:wikidata": "Q171985", "public_transport": "station", "railway": "station", "station": "subway", "subway": "yes", "train": "yes", "wheelchair": "yes", "wikidata": "Q4163500"}}, {"type": "node", "id": 69504418, "lat": 42.3312546, "lon": -71.0955776, "tags": {"name": "Roxbury Crossing", "network": "MBTA", "network:guid": "US-MA-MBTA", "network:short": "MBTA", "network:wikidata": "Q171985", "network:wikipedia": "en:Massachusetts Bay Transportation Authority", "operator": "Massachusetts Bay Transportation Authority", "operator:short": "MBTA", "operator:wikidata": "Q171985", "public_transport": "station", "railway": "station", "station": "subway", "subway": "yes", "train": "yes", "wheelchair": "yes", "wikidata": "Q3736876"}}, {"type": "node", "id": 69504429, "lat": 42.39051, "lon": -70.9971875, "tags": {"ele": "4", "gnis:feature_id": "617371", "name": "Suffolk Downs", "network": "MBTA", "network:guid": "US-MA-MBTA", "network:short": "MBTA", "network:wikidata": "Q171985", "network:wikipedia": "en:Massachusetts Bay Transportation Authority", "operator": "Massachusetts Bay Transportation Authority", "operator:short": "MBTA", "operator:wikidata": "Q171985", "public_transport": "station", "railway": "station", "station": "subway", "subway": "yes", "wheelchair": "yes", "wikidata": "Q4250197"}}, {"type": "node", "id": 69504598, "lat": 42.3733695, "lon": -71.1189903, "tags": {"amenity": "bus_station", "bus": "yes", "check_date": "2025-08-01", "name": "Harvard Square", "public_transport": "station", "wheelchair": "yes"}}, {"type": "node", "id": 69504608, "lat": 42.3588043, "lon": -71.0577716, "tags": {"name": "State", "network": "MBTA", "network:wikidata": "Q171985", "operator": "Massachusetts Bay Transportation Authority", "operator:short": "MBTA", "operator:wikidata": "Q171985", "public_transport": "station", "railway": "station", "station": "subway", "subway": "yes", "train": "yes", "website": "https://www.mbta.com/stops/place-state", "wheelchair": "yes", "wikidata": "Q2913313", "wikipedia": "en:State station"}}, {"type": "node", "id": 69504742, "lat": 42.3473297, "lon": -71.0749406, "tags": {"addr:city": "Boston", "addr:housenumber": "145", "addr:postcode": "02116", "addr:state": "MA", "addr:street": "Dartmouth Street", "name": "Boston Back Bay", "network": "Amtrak;MBTA", "operator": "MBTA", "public_transport": "station", "railway": "station", "railway:ref": "BBY", "train": "yes", "wheelchair": "yes", "wikidata": "Q3675991", "wikipedia": "en:Back Bay station"}}, {"type": "node", "id": 69504783, "lat": 42.2758631, "lon": -71.0302411, "tags": {"name": "North Quincy", "network": "MBTA", "network:guid": "US-MA-MBTA", "network:short": "MBTA", "network:wikidata": "Q171985", "network:wikipedia": "en:Massachusetts Bay Transportation Authority", "operator": "Massachusetts Bay Transportation Authority", "operator:short": "MBTA", "operator:wikidata": "Q171985", "platforms": "1", "public_transport": "station", "railway": "station", "station": "subway", "subway": "yes", "train": "yes", "website": "https://www.mbta.com/", "wheelchair": "yes", "wikidata": "Q7056450", "wikipedia": "en:North Quincy station"}}, {"type": "node", "id": 69504856, "lat": 42.3385164, "lon": -71.0312759, "tags": {"addr:city": "Boston", "addr:housenumber": "764", "addr:postcode": "02127", "addr:state": "MA", "addr:street": "East First Street", "amenity": "bus_station", "attribution": "massDOT", "bus": "yes", "departures_board": "no", "highway": "bus_stop", "line": "Silver", "massgis:geom_id": "144", "name": "City Point Bus Terminal", "network": "MBTA", "network:wikidata": "Q171985", "operator": "MBTA", "public_transport": "station", "ref": "33", "shelter": "yes", "source": "survey;local knowledge", "website": "https://www.mbta.com/stops/33", "wheelchair": "yes", "wikidata": "Q5123369", "wikipedia": "en:City Point Bus Terminal"}}, {"type": "node", "id": 69504909, "lat": 42.2667647, "lon": -71.020485, "tags": {"name": "Wollaston", "network": "MBTA", "network:guid": "US-MA-MBTA", "network:short": "MBTA", "network:wikidata": "Q171985", "network:wikipedia": "en:Massachusetts Bay Transportation Authority", "operator": "MBTA", "operator:wikidata": "Q171985", "public_transport": "station", "railway": "station", "station": "subway", "subway": "yes", "train": "yes", "wheelchair": "yes", "wikidata": "Q2878701"}}, {"type": "node", "id": 69504980, "lat": 42.3496554, "lon": -71.0638505, "tags": {"name": "Tufts Medical Center", "network": "MBTA", "network:guid": "US-MA-MBTA", "network:short": "MBTA", "network:wikidata": "Q171985", "network:wikipedia": "en:Massachusetts Bay Transportation Authority", "operator": "Massachusetts Bay Transportation Authority", "operator:short": "MBTA", "operator:wikidata": "Q171985", "public_transport": "station", "railway": "station", "station": "subway", "subway": "yes", "train": "yes", "wheelchair": "yes", "wikidata": "Q3660983"}}, {"type": "node", "id": 69504996, "lat": 42.2519622, "lon": -71.0054942, "tags": {"addr:city": "Quincy", "addr:housenumber": "1300", "addr:state": "MA", "addr:street": "Hancock Street", "name": "Quincy Center", "network": "MBTA", "network:guid": "US-MA-MBTA", "network:short": "MBTA", "network:wikidata": "Q171985", "network:wikipedia": "en:Massachusetts Bay Transportation Authority", "operator": "Massachusetts Bay Transportation Authority", "operator:short": "MBTA", "operator:wikidata": "Q171985", "public_transport": "station", "railway": "station", "station": "subway", "subway": "yes", "train": "yes", "website": "https://www.mbta.com/", "wikidata": "Q7875717", "wikipedia": "en:Quincy Center station"}}, {"type": "node", "id": 69505088, "lat": 42.437512, "lon": -71.0708872, "tags": {"addr:city": "Malden", "addr:housenumber": "295", "addr:postcode": "02148", "addr:state": "MA", "addr:street": "Washington Street", "name": "Oak Grove", "network": "MBTA", "network:guid": "US-MA-MBTA", "network:short": "MBTA", "network:wikidata": "Q171985", "network:wikipedia": "en:Massachusetts Bay Transportation Authority", "operator": "Massachusetts Bay Transportation Authority", "operator:short": "MBTA", "operator:wikidata": "Q171985", "public_transport": "station", "railway": "station", "station": "subway", "subway": "yes", "wheelchair": "yes", "wikidata": "Q3467065", "wikipedia": "en:Oak Grove station"}}, {"type": "node", "id": 69505359, "lat": 42.3108218, "lon": -71.0535376, "tags": {"addr:housenumber": "121", "addr:street": "Savin Hill Avenue", "name": "Savin Hill", "network": "MBTA", "network:wikidata": "Q171985", "operator": "MBTA", "public_transport": "station", "railway": "station", "station": "subway", "subway": "yes", "train": "yes", "website": "https://www.mbta.com/", "wheelchair": "yes", "wikidata": "Q7428251", "wikipedia": "en:Savin Hill station"}}, {"type": "node", "id": 69505365, "lat": 42.3522166, "lon": -71.0626074, "tags": {"name": "Chinatown", "network": "MBTA", "network:wikidata": "Q171985", "network:wikipedia": "en:Massachusetts Bay Transportation Authority", "operator": "Massachusetts Bay Transportation Authority", "operator:short": "MBTA", "operator:wikidata": "Q171985", "public_transport": "station", "railway": "station", "station": "subway", "subway": "yes", "train": "yes", "website": "https://www.mbta.com/stops/place-chncl", "wheelchair": "yes", "wikidata": "Q966028", "wikipedia": "en:Chinatown station (MBTA)"}}, {"type": "node", "id": 243396114, "lat": 41.9603104, "lon": -70.6621741, "tags": {"amenity": "ferry_terminal", "ferry": "yes", "name": "Provincetown Fast Ferry", "operator": "Captain John Boats", "public_transport": "station", "source": "Mapbox"}}, {"type": "node", "id": 356122226, "lat": 42.3958073, "lon": -71.1416285, "tags": {"air_conditioning": "no", "amenity": "bus_station", "bus": "yes", "check_date": "2025-06-18", "name": "Alewife", "operator": "Boston MBTA", "public_transport": "station", "source": "survey", "wheelchair": "yes"}}, {"type": "node", "id": 365922994, "lat": 42.3595655, "lon": -71.0519869, "tags": {"name": "Aquarium", "network": "MBTA", "network:guid": "US-MA-MBTA", "network:short": "MBTA", "network:wikidata": "Q171985", "network:wikipedia": "en:Massachusetts Bay Transportation Authority", "operator": "Massachusetts Bay Transportation Authority", "operator:short": "MBTA", "operator:wikidata": "Q171985", "public_transport": "station", "railway": "station", "station": "subway", "subway": "yes", "train": "yes", "wheelchair": "yes", "wikidata": "Q4069171"}}, {"type": "node", "id": 367777677, "lat": 41.7071992, "lon": -70.3744441, "tags": {"addr:state": "MA", "ele": "13", "gnis:feature_id": "606089", "name": "West Barnstable", "network": "Cape Cod Central Railroad", "operator": "Cape Cod Central Railroad", "railway": "halt", "source": "USGS Geonames"}}, {"type": "node", "id": 367781362, "lat": 42.2612043, "lon": -71.7950711, "tags": {"addr:state": "MA", "ele": "146", "gnis:feature_id": "604311", "name": "Worcester", "network": "Amtrak;MBTA", "public_transport": "station", "railway": "station", "railway:ref": "WOR", "source": "USGS Geonames", "train": "yes", "wikidata": "Q7886112"}}, {"type": "node", "id": 367781363, "lat": 42.1062879, "lon": -72.5933359, "tags": {"addr:city": "Springfield", "addr:housenumber": "55", "addr:postcode": "01103", "addr:state": "MA", "addr:street": "Frank B Murray Street", "gnis:feature_id": "601014", "iata": "ZSF", "internet_access": "yes", "name": "Springfield Union Station", "network": "Amtrak;CTrail", "operator": "Amtrak", "public_transport": "station", "railway": "station", "railway:ref": "SPG", "source": "USGS Geonames", "train": "yes", "website": "https://www.amtrak.com/stations/spg", "wikidata": "Q7581099", "wikipedia": "en:Springfield Union Station (Massachusetts)"}}, {"type": "node", "id": 534689832, "lat": 41.2855138, "lon": -70.0958951, "tags": {"amenity": "ferry_terminal", "ferry": "yes", "name": "Steamship Authority Terminal", "public_transport": "station"}}, {"type": "node", "id": 660400880, "lat": 42.5620726, "lon": -70.8693454, "tags": {"name": "Montserrat", "network": "MBTA", "public_transport": "station", "railway": "halt", "train": "yes", "wikidata": "Q6906570"}}, {"type": "node", "id": 899532179, "lat": 42.1658519, "lon": -70.8950531, "tags": {"amenity": "bus_station", "name": "Rockland Park-and-Ride"}}, {"type": "node", "id": 905429383, "lat": 42.2128416, "lon": -71.1156699, "tags": {"aerialway": "station", "public_transport": "station"}}, {"type": "node", "id": 947681622, "lat": 42.7021304, "lon": -71.1523721, "tags": {"addr:city": "Lawrence", "addr:housenumber": "211", "addr:postcode": "01843", "addr:street": "Merrimack Street", "name": "Lawrence", "network": "MBTA", "network:wikidata": "Q171985", "operator": "MBTA", "public_transport": "station", "railway": "station", "train": "yes", "wheelchair": "yes", "wikidata": "Q6503770", "wikipedia": "en:McGovern Transportation Center"}}, {"type": "node", "id": 1032140816, "lat": 42.2612397, "lon": -71.7957589, "tags": {"amenity": "bus_station", "bus": "yes", "name": "Worcester Bus Station", "public_transport": "station"}}, {"type": "node", "id": 1037938783, "lat": 42.3365581, "lon": -71.0892701, "tags": {"addr:city": "Roxbury Crossing", "addr:postcode": "02120", "addr:state": "MA", "name": "Ruggles", "network": "MBTA", "network:guid": "US-MA-MBTA", "network:short": "MBTA", "network:wikidata": "Q171985", "network:wikipedia": "en:Massachusetts Bay Transportation Authority", "operator": "MBTA", "operator:wikidata": "Q171985", "public_transport": "station", "railway": "station", "railway:position": "mi:226.5", "train": "yes", "website": "https://www.mbta.com/", "wheelchair": "yes", "wikidata": "Q3736904", "wikipedia": "en:Ruggles station"}}, {"type": "node", "id": 1055670961, "lat": 42.4899508, "lon": -71.8874341, "tags": {"aerialway": "station", "public_transport": "station"}}, {"type": "node", "id": 1055671292, "lat": 42.5018122, "lon": -71.8851318, "tags": {"aerialway": "station", "public_transport": "station"}}, {"type": "node", "id": 1055671446, "lat": 42.5014347, "lon": -71.8860428, "tags": {"aerialway": "station", "public_transport": "station"}}, {"type": "node", "id": 1143179109, "lat": 42.3512161, "lon": -71.0414946, "tags": {"amenity": "ferry_terminal", "ferry": "yes", "name": "World Trade Center (West) Ferry Terminal", "public_transport": "station"}}, {"type": "node", "id": 1146549951, "lat": 42.3556523, "lon": -71.0496805, "tags": {"amenity": "ferry_terminal", "ferry": "yes", "name": "Rowes Wharf Ferry Terminal", "public_transport": "station"}}, {"type": "node", "id": 1146550134, "lat": 42.3727477, "lon": -71.0525492, "tags": {"addr:city": "Boston", "addr:postcode": "02129", "addr:state": "MA", "addr:street": "Constellation Wharf", "addr:unit": "Pier 4", "amenity": "ferry_terminal", "ferry": "yes", "internet_access": "no", "name": "Charlestown Navy Yard Ferry Terminal", "network": "MBTA", "operator": "MBTA", "public_transport": "station", "source": "survey;local knowledge", "website": "https://www.mbta.com/stops/Boat-Charlestown", "wheelchair": "yes"}}, {"type": "node", "id": 1146550164, "lat": 42.254171, "lon": -70.9198232, "tags": {"addr:city": "Hingham", "addr:state": "MA", "amenity": "ferry_terminal", "ferry": "yes", "name": "Hewitts Cove Ferry Terminal", "network": "MBTA", "operator": "Boston Harbor Cruises", "phone": "+1 781-749-8009", "public_transport": "station", "website": "https://www.mbta.com/schedules_and_maps/boats/"}}, {"type": "node", "id": 1146550245, "lat": 42.3026554, "lon": -70.9200145, "tags": {"amenity": "ferry_terminal", "ferry": "yes", "name": "Hull", "public_transport": "station"}}, {"type": "node", "id": 1146550359, "lat": 42.3607955, "lon": -71.0499641, "tags": {"amenity": "ferry_terminal", "ferry": "yes", "name": "Long Wharf (North) Ferry Terminal", "operator": "Water Transportation Alternatives", "public_transport": "station"}}, {"type": "node", "id": 1146550606, "lat": 42.3601422, "lon": -71.0274572, "tags": {"amenity": "ferry_terminal", "ferry": "yes", "name": "Logan Airport Ferry Terminal", "operator": "Water Transportation Alternatives", "public_transport": "station", "wheelchair": "yes"}}, {"type": "node", "id": 1146552076, "lat": 42.3594308, "lon": -71.0504562, "tags": {"addr:city": "Boston", "addr:housenumber": "66", "addr:postcode": "02129", "addr:state": "MA", "addr:street": "Long Wharf", "air_conditioning": "no", "amenity": "ferry_terminal", "ferry": "yes", "internet_access": "no", "name": "Long Wharf (South) Ferry Terminal", "network": "MBTA", "operator": "MBTA", "public_transport": "station", "website": "https://www.mbta.com/stops/Boat-Long-South", "wheelchair": "yes"}}, {"type": "node", "id": 1146564479, "lat": 42.3432641, "lon": -71.0365264, "tags": {"alt_name": "EDIC Pier #10", "amenity": "ferry_terminal", "ferry": "yes", "name": "EDIC Pier", "operator": "Economic Development Industrial Corporation", "public_transport": "station"}}, {"type": "node", "id": 1146564509, "lat": 42.3542823, "lon": -71.0483209, "tags": {"amenity": "ferry_terminal", "ferry": "yes", "name": "Courthouse Dock", "public_transport": "station"}}, {"type": "node", "id": 1176681869, "lat": 42.3332029, "lon": -71.1094759, "tags": {"light_rail": "yes", "name": "Mission Park", "network": "MBTA", "operator": "Massachusetts Bay Transportation Authority", "operator:short": "MBTA", "operator:wikidata": "Q171985", "public_transport": "station", "railway": "halt", "station": "light_rail", "wikidata": "Q9033695"}}, {"type": "node", "id": 1231127007, "lat": 42.2520578, "lon": -71.0052022, "tags": {"amenity": "bus_station", "bus": "yes", "name": "Quincy Center", "operator": "MBTA", "public_transport": "station"}}, {"type": "node", "id": 1249808989, "lat": 42.2754299, "lon": -71.0289151, "tags": {"amenity": "bus_station", "attribution": "massDOT", "bus": "yes", "name": "North Quincy Station", "network": "MBTA", "network:wikidata": "Q171985", "network:wikipedia": "en:Massachusetts Bay Transportation Authority", "operator": "MBTA", "public_transport": "station", "ref": "70098", "source": "massdot_import_081211"}}, {"type": "node", "id": 1274522932, "lat": 41.5222584, "lon": -70.6704355, "tags": {"amenity": "ferry_terminal", "ferry": "yes", "name": "Woods Hole", "operator": "Steamship Authority", "public_transport": "station"}}, {"type": "node", "id": 1459467609, "lat": 42.3167166, "lon": -72.6320236, "tags": {"amenity": "bus_station", "bus": "yes", "name": "Peter Pan", "public_transport": "station"}}, {"type": "node", "id": 1666023173, "lat": 42.4509194, "lon": -71.1378655, "tags": {"name": "Winchester Center", "network": "MBTA", "network:wikidata": "Q171985", "public_transport": "station", "railway": "station", "train": "yes", "wikidata": "Q8023783"}}, {"type": "node", "id": 1817001029, "lat": 42.0492944, "lon": -70.1816492, "tags": {"amenity": "ferry_terminal", "bicycle": "dismount", "cargo": "passengers;bicycle", "ferry": "yes", "name": "MacMillan Pier", "operator": "Provincetown Public Pier Corp", "public_transport": "station"}}, {"type": "node", "id": 1840963952, "lat": 41.4584168, "lon": -70.5588009, "tags": {"amenity": "ferry_terminal", "ferry": "yes", "public_transport": "station"}}, {"type": "node", "id": 1902332719, "lat": 42.3666784, "lon": -70.9737713, "tags": {"amenity": "ferry_terminal", "ferry": "yes", "name": "Winthrop Landing", "public_transport": "station"}}, {"type": "node", "id": 2296268295, "lat": 41.4555947, "lon": -70.6002641, "tags": {"amenity": "ferry_terminal", "ferry": "yes", "operator": "Steamship Authority", "public_transport": "station", "source": "Bing"}}, {"type": "node", "id": 2446048150, "lat": 42.3598648, "lon": -71.0484848, "tags": {"amenity": "ferry_terminal", "ferry": "yes", "public_transport": "station"}}, {"type": "node", "id": 2468861281, "lat": 42.5702001, "lon": -71.4182752, "tags": {"amenity": "bus_station", "bus": "yes", "name": "Nixon Road Bus Stop", "public_transport": "station"}}, {"type": "node", "id": 2864923045, "lat": 42.3019976, "lon": -71.0318084, "tags": {"amenity": "ferry_terminal", "ferry": "yes", "name": "Quincy/Squantum Point Park", "operator": "MBTA", "public_transport": "station"}}, {"type": "node", "id": 2926907619, "lat": 42.5839682, "lon": -70.8838859, "tags": {"addr:city": "Beverly", "addr:postcode": "01915", "addr:street": "Enon Street", "addr:street_1": "Dodge Street", "name": "North Beverly", "network": "MBTA", "operator": "MBTA", "public_transport": "station", "railway": "halt", "train": "yes", "wheelchair": "yes", "wikidata": "Q7054187", "wikipedia": "en:North Beverly station"}}, {"type": "node", "id": 2926907717, "lat": 42.6095095, "lon": -70.87456, "tags": {"addr:city": "Hamilton", "addr:postcode": "01982", "addr:street": "Bay Road", "addr:street_1": "Walnut Road", "name": "Hamilton/Wenham", "network": "MBTA", "operator": "MBTA", "public_transport": "station", "railway": "halt", "train": "yes", "wikidata": "Q5644813", "wikipedia": "en:Hamilton/Wenham station"}}, {"type": "node", "id": 2926907749, "lat": 42.676092, "lon": -70.8408681, "tags": {"addr:city": "Ipswich", "addr:housenumber": "4", "addr:postcode": "01938-2132", "addr:street": "Topsfield Road", "name": "Ipswich", "network": "MBTA", "network:guid": "US-MA-MBTA", "network:short": "MBTA", "network:wikidata": "Q171985", "network:wikipedia": "en:Massachusetts Bay Transportation Authority", "operator": "MBTA", "operator:wikidata": "Q171985", "public_transport": "station", "railway": "station", "train": "yes", "wikidata": "Q6065500", "wikipedia": "en:Ipswich station (MBTA)"}}, {"type": "node", "id": 2926936617, "lat": 42.7271476, "lon": -70.8591861, "tags": {"addr:city": "Rowley", "addr:housenumber": "70", "addr:postcode": "01969-1211", "addr:street": "Railroad Avenue", "name": "Rowley", "network": "MBTA", "operator": "MBTA", "public_transport": "station", "railway": "halt", "train": "yes", "wikidata": "Q7372223", "wikipedia": "en:Rowley station (MBTA)"}}, {"type": "node", "id": 2932413633, "lat": 42.3588655, "lon": -71.0485686, "tags": {"amenity": "ferry_terminal", "ferry": "yes", "name": "Central Wharf Ferry Terminal", "public_transport": "station"}}, {"type": "node", "id": 3067823240, "lat": 41.8484147, "lon": -70.7721843, "tags": {"alt_name": "Edaville Railroad Station", "name": "Edaville", "public_transport": "station", "railway": "station", "tourism": "attraction"}}, {"type": "node", "id": 3111450053, "lat": 42.3973855, "lon": -70.9924965, "tags": {"name": "Beachmont", "network": "MBTA", "network:guid": "US-MA-MBTA", "network:short": "MBTA", "network:wikidata": "Q171985", "network:wikipedia": "en:Massachusetts Bay Transportation Authority", "operator": "MBTA", "operator:wikidata": "Q171985", "public_transport": "station", "railway": "station", "station": "subway", "subway": "yes", "train": "yes", "wheelchair": "yes", "wikidata": "Q4265021"}}, {"type": "node", "id": 3111450054, "lat": 42.3691041, "lon": -71.0395764, "tags": {"name": "Maverick", "network": "MBTA", "network:guid": "US-MA-MBTA", "network:short": "MBTA", "network:wikidata": "Q171985", "network:wikipedia": "en:Massachusetts Bay Transportation Authority", "operator": "Massachusetts Bay Transportation Authority", "operator:short": "MBTA", "operator:wikidata": "Q171985", "public_transport": "station", "railway": "station", "station": "subway", "subway": "yes", "train": "yes", "wheelchair": "yes", "wikidata": "Q4241644"}}, {"type": "node", "id": 3111450058, "lat": 42.407816, "lon": -70.9925369, "tags": {"name": "Revere Beach", "network": "MBTA", "network:guid": "US-MA-MBTA", "network:short": "MBTA", "network:wikidata": "Q171985", "network:wikipedia": "en:Massachusetts Bay Transportation Authority", "operator": "MBTA", "operator:wikidata": "Q171985", "public_transport": "station", "railway": "station", "station": "subway", "subway": "yes", "wheelchair": "yes", "wikidata": "Q4308695"}}, {"type": "node", "id": 3111450065, "lat": 42.4134836, "lon": -70.991668, "tags": {"name": "Wonderland", "network": "MBTA", "network:guid": "US-MA-MBTA", "network:short": "MBTA", "network:wikidata": "Q171985", "network:wikipedia": "en:Massachusetts Bay Transportation Authority", "operator": "Massachusetts Bay Transportation Authority", "operator:short": "MBTA", "operator:wikidata": "Q171985", "public_transport": "station", "railway": "station", "station": "subway", "subway": "yes", "train": "yes", "wheelchair": "yes", "wikidata": "Q3952874"}}, {"type": "node", "id": 3155470610, "lat": 42.2810283, "lon": -71.2376026, "tags": {"addr:city": "Needham", "addr:country": "US", "addr:postcode": "02492", "addr:state": "MA", "addr:street": "Great Plain Avenue", "addr:street_1": "Eaton Square", "fare_zone": "2", "name": "Needham Center", "network": "MBTA", "network:guid": "US-MA-MBTA", "network:short": "MBTA", "network:wikidata": "Q171985", "operator": "Massachusetts Bay Transit Authority", "operator:short": "MBTA", "public_transport": "station", "railway": "station", "start_date": "1870", "train": "yes", "wheelchair": "yes", "wikidata": "Q6986542", "wikipedia": "en:Needham Center station"}}, {"type": "node", "id": 3155470612, "lat": 42.2934431, "lon": -71.2359713, "tags": {"addr:city": "Needham", "addr:country": "US", "addr:housenumber": "95", "addr:postcode": "02494-1320", "addr:state": "MA", "addr:street": "West Street", "fare_zone": "2", "name": "Needham Heights", "network": "MBTA", "network:guid": "US-MA-MBTA", "network:short": "MBTA", "network:wikidata": "Q171985", "operator": "Massachusetts Bay Transit Authority", "operator:short": "MBTA", "public_transport": "station", "railway": "station", "start_date": "1870", "train": "yes", "wheelchair": "yes", "wikidata": "Q14715754", "wikipedia": "en:Needham Heights station"}}, {"type": "node", "id": 3155470616, "lat": 42.2732023, "lon": -71.2356807, "tags": {"addr:city": "Needham", "addr:country": "US", "addr:housenumber": "51", "addr:postcode": "02492-2919", "addr:state": "MA", "addr:street": "Junction Street", "fare_zone": "2", "name": "Needham Junction", "network": "MBTA", "network:guid": "US-MA-MBTA", "network:short": "MBTA", "network:wikidata": "Q171985", "operator": "Massachusetts Bay Transit Authority", "operator:short": "MBTA", "public_transport": "station", "railway": "station", "start_date": "1904-11-04", "train": "yes", "wheelchair": "yes", "wikidata": "Q6986546", "wikipedia": "en:Needham Junction station"}}, {"type": "node", "id": 3155470619, "lat": 42.2813757, "lon": -71.1601407, "tags": {"addr:city": "West Roxbury", "addr:city_parent": "Boston", "addr:country": "US", "addr:county": "Suffolk", "addr:housenumber": "450", "addr:postcode": "02132-3226", "addr:state": "MA", "addr:street": "Lagrange Street", "fare_zone": "1", "name": "West Roxbury", "network": "MBTA", "network:guid": "US-MA-MBTA", "network:short": "MBTA", "network:wikidata": "Q171985", "operator": "Massachusetts Bay Transit Authority", "operator:short": "MBTA", "public_transport": "station", "railway": "station", "train": "yes", "wheelchair": "yes", "wikidata": "Q7986402", "wikipedia": "en:West Roxbury station"}}, {"type": "node", "id": 3181939556, "lat": 42.2866423, "lon": -71.145562, "tags": {"addr:city": "West Roxbury", "addr:city_parent": "Boston", "addr:country": "US", "addr:county": "Suffolk", "addr:housenumber": "35", "addr:neighbourhood": "Bellevue", "addr:postcode": "02132-1239", "addr:state": "MA", "addr:street": "Colbert Street", "fare_zone": "1", "name": "Bellevue", "network": "MBTA", "network:guid": "US-MA-MBTA", "network:short": "MBTA", "network:wikidata": "Q171985", "operator": "Massachusetts Bay Transit Authority", "operator:short": "MBTA", "public_transport": "station", "railway": "station", "train": "yes", "wheelchair": "yes", "wikidata": "Q4883902", "wikipedia": "en:Bellevue station (MBTA)"}}, {"type": "node", "id": 3181939557, "lat": 42.2850048, "lon": -71.1539983, "tags": {"addr:city": "West Roxbury", "addr:city_parent": "Boston", "addr:country": "US", "addr:county": "Suffolk", "addr:neighbourhood": "West Roxbury Center", "addr:postcode": "02132", "addr:state": "MA", "addr:street": "Corey Street", "addr:street_1": "Railroad Street", "fare_zone": "1", "name": "Highland", "network": "MBTA", "network:guid": "US-MA-MBTA", "network:short": "MBTA", "network:wikidata": "Q171985", "operator": "Massachusetts Bay Transit Authority", "operator:short": "MBTA", "public_transport": "station", "railway": "station", "train": "yes", "wheelchair": "yes", "wikidata": "Q5758631", "wikipedia": "en:Highland station (MBTA)"}}, {"type": "node", "id": 3181939559, "lat": 42.2874874, "lon": -71.1303173, "tags": {"addr:city": "Roslindale", "addr:city_parent": "Boston", "addr:country": "US", "addr:county": "Suffolk", "addr:housenumber": "1", "addr:neighbourhood": "Roslindale Village", "addr:postcode": "02131-3025", "addr:state": "MA", "addr:street": "Belgrade Avenue", "fare_zone": "1", "name": "Roslindale Village", "network": "MBTA", "network:guid": "US-MA-MBTA", "network:short": "MBTA", "network:wikidata": "Q171985", "network:wikipedia": "en:Massachusetts Bay Transportation Authority", "operator": "Massachusetts Bay Transit Authority", "operator:short": "MBTA", "operator:wikidata": "Q171985", "public_transport": "station", "railway": "station", "train": "yes", "wheelchair": "yes", "wikidata": "Q7369037", "wikipedia": "en:Roslindale Village station"}}, {"type": "node", "id": 3185222408, "lat": 42.328273, "lon": -71.1103291, "tags": {"light_rail": "yes", "name": "Heath Street", "network": "MBTA", "operator": "Massachusetts Bay Transportation Authority", "operator:short": "MBTA", "operator:wikidata": "Q171985", "public_transport": "station", "railway": "halt", "station": "light_rail", "wikidata": "Q11680430"}}, {"type": "node", "id": 3279972794, "lat": 42.2546247, "lon": -71.1257073, "tags": {"departures_board": "timetable", "name": "Hyde Park", "network": "MBTA", "network:short": "MBTA", "network:wikidata": "Q171985", "operator": "MBTA", "operator:short": "MBTA", "public_transport": "station", "railway": "station", "railway:position": "mi:220.3", "train": "yes", "website": "https://www.mbta.com/", "wheelchair": "limited", "wikidata": "Q5953619", "wikipedia": "en:Hyde Park station (MBTA)"}}, {"type": "node", "id": 3324509153, "lat": 42.3362291, "lon": -71.1490016, "tags": {"light_rail": "yes", "name": "Cleveland Circle", "network": "MBTA", "network:wikidata": "Q171985", "operator": "Massachusetts Bay Transportation Authority", "operator:short": "MBTA", "operator:wikidata": "Q171985", "public_transport": "station", "railway": "station", "station": "light_rail", "train": "yes", "wheelchair:description": "train_station", "wikidata": "Q15975315"}}, {"type": "node", "id": 3404799752, "lat": 42.7970196, "lon": -70.8776453, "tags": {"addr:city": "Newburyport", "addr:housenumber": "25", "addr:postcode": "01950-4067", "addr:state": "NH", "addr:street": "Boston Way", "name": "Newburyport", "network": "MBTA", "network:wikidata": "Q171985", "operator": "MBTA", "public_transport": "station", "railway": "station", "train": "yes", "wikidata": "Q7017266", "wikipedia": "en:Newburyport station"}}, {"type": "node", "id": 3450592586, "lat": 41.6881683, "lon": -70.3389994, "tags": {"amenity": "bus_station", "bus": "yes", "name": "Barnstable Stop", "operator": "Plymouth and Brockton", "public_transport": "station"}}, {"type": "node", "id": 3671055665, "lat": 42.3188119, "lon": -72.6264014, "tags": {"addr:city": "Northampton", "addr:housenumber": "170", "addr:postcode": "01060", "addr:state": "MA", "addr:street": "Pleasant Street", "internet_access": "no", "name": "Northampton", "network": "Amtrak", "operator": "Amtrak", "public_transport": "station", "railway": "station", "railway:ref": "NHT", "train": "yes", "website": "https://www.amtrak.com/stations/nht", "wheelchair": "yes", "wikidata": "Q7057580"}}, {"type": "node", "id": 3903766502, "lat": 42.2756834, "lon": -71.2155636, "tags": {"addr:city": "Needham", "addr:country": "US", "addr:state": "MA", "addr:street": "Great Plain Avenue", "addr:street_1": "Broad Meadow Road", "fare_zone": "2", "name": "Hersey", "network": "MBTA", "network:guid": "US-MA-MBTA", "network:short": "MBTA", "network:wikidata": "Q171985", "old_name": "Birds Hill", "operator": "Massachusetts Bay Transit Authority", "operator:short": "MBTA", "public_transport": "station", "railway": "station", "start_date": "1917", "train": "yes", "wheelchair": "yes", "wikidata": "Q5744393", "wikipedia": "en:Hersey station"}}, {"type": "node", "id": 3957060117, "lat": 42.2607753, "lon": -71.7965987, "tags": {"addr:city": "Worcester", "addr:housenumber": "60", "addr:postcode": "01608", "addr:state": "MA", "addr:street": "Foster Street", "amenity": "bus_station", "bus": "yes", "name": "WRTA Transportation Hub", "public_transport": "station"}}, {"type": "node", "id": 4023123918, "lat": 41.6692419, "lon": -70.0580469, "tags": {"amenity": "ferry_terminal", "cargo": "passengers", "ferry": "yes", "name": "Saquatucket Harbor - Harwich Port", "public_transport": "station"}}, {"type": "node", "id": 4207603239, "lat": 42.267, "lon": -70.92078, "tags": {"amenity": "ferry_terminal", "ferry": "yes", "name": "Grape Island Ferry Landing", "public_transport": "station"}}, {"type": "node", "id": 4207603655, "lat": 42.2795706, "lon": -70.9015377, "tags": {"amenity": "ferry_terminal", "ferry": "yes", "name": "Bumpkin Island Ferry Landing", "public_transport": "station"}}, {"type": "node", "id": 4207605289, "lat": 42.2987839, "lon": -70.9266298, "tags": {"amenity": "ferry_terminal", "ferry": "yes", "name": "Peddocks Island Ferry Landing", "public_transport": "station"}}, {"type": "node", "id": 4207605772, "lat": 42.3195789, "lon": -70.9311164, "tags": {"addr:city": "Boston", "addr:state": "MA", "amenity": "ferry_terminal", "ferry": "yes", "name": "Georges Island Ferry Landing", "public_transport": "station"}}, {"type": "node", "id": 4207606103, "lat": 42.31922, "lon": -71.01011, "tags": {"alt_name": "Cathleen Stone Island Ferry Landing", "amenity": "ferry_terminal", "ferry": "yes", "name": "Thompson Island Ferry Landing", "public_transport": "station"}}, {"type": "node", "id": 4207606369, "lat": 42.3263375, "lon": -70.9270736, "tags": {"addr:city": "Boston", "addr:state": "MA", "amenity": "ferry_terminal", "ferry": "yes", "name": "Lovells Island Ferry Landing", "public_transport": "station"}}, {"type": "node", "id": 4509208528, "lat": 42.3432148, "lon": -71.1172153, "tags": {"light_rail": "yes", "name": "Saint Paul Street", "network": "MBTA", "operator": "Massachusetts Bay Transportation Authority", "operator:short": "MBTA", "operator:wikidata": "Q171985", "public_transport": "station", "railway": "halt", "station": "light_rail", "wheelchair": "no", "wikidata": "Q7591273"}}, {"type": "node", "id": 4572514863, "lat": 42.37128, "lon": -71.07615, "tags": {"addr:city": "Cambridge", "addr:housenumber": "3", "addr:postcode": "02141", "addr:state": "MA", "addr:street": "North First Street", "check_date": "2022-10-23", "layer": "2", "level": "1", "light_rail": "yes", "name": "Lechmere", "network": "MBTA", "network:wikidata": "Q171985", "operator": "Massachusetts Bay Transportation Authority", "operator:short": "MBTA", "operator:wikidata": "Q171985", "public_transport": "station", "railway": "station", "start_date": "2022-03-21", "station": "light_rail", "train": "yes", "website": "https://www.mbta.com/stops/place-lech", "wheelchair": "yes", "wikidata": "Q5972362", "wikipedia": "en:Lechmere station"}}, {"type": "node", "id": 4779889236, "lat": 42.3535207, "lon": -71.043181, "tags": {"amenity": "ferry_terminal", "ferry": "yes", "name": "Fan Pier Ferry Terminal", "network": "South Boston Waterfront Transit", "phone": "+1-617-539-1100", "public_transport": "station"}}, {"type": "node", "id": 5058086808, "lat": 41.4600526, "lon": -70.5577561, "tags": {"amenity": "ferry_terminal", "ferry": "yes", "name": "Island Queen", "public_transport": "station"}}, {"type": "node", "id": 5058104397, "lat": 41.5456855, "lon": -70.6052879, "tags": {"amenity": "ferry_terminal", "ferry": "yes", "public_transport": "station"}}, {"type": "node", "id": 5058104824, "lat": 41.3891718, "lon": -70.510008, "tags": {"amenity": "ferry_terminal", "ferry": "yes", "name": "Falmouth-Edgartown Ferry", "public_transport": "station"}}, {"type": "node", "id": 5058194260, "lat": 41.2861922, "lon": -70.0961425, "tags": {"amenity": "ferry_terminal", "ferry": "yes", "name": "Steamship Authority Terminal", "public_transport": "station"}}, {"type": "node", "id": 5104369805, "lat": 42.5807568, "lon": -71.7924786, "tags": {"addr:city": "Fitchburg", "addr:housenumber": "100", "addr:postcode": "01420", "addr:state": "MA", "addr:street": "Main Street", "fare_zone": "8", "name": "Fitchburg", "network": "MBTA", "network:wikidata": "Q171985", "operator": "MBTA", "public_transport": "station", "railway": "station", "train": "yes", "wheelchair": "yes", "wikidata": "Q5455424", "wikipedia": "en:Fitchburg Intermodal Transportation Center"}}, {"type": "node", "id": 5104369817, "lat": 42.4603679, "lon": -71.4577382, "tags": {"addr:city": "Acton", "addr:housenumber": "10", "addr:postcode": "01720", "addr:state": "MA", "addr:street": "Central Street", "name": "South Acton", "network": "MBTA", "network:wikidata": "Q171985", "operator": "MBTA", "public_transport": "station", "railway": "station", "toilets:wheelchair": "no", "train": "yes", "wheelchair": "yes", "wikidata": "Q7565352", "wikipedia": "en:South Acton station (MBTA)"}}, {"type": "node", "id": 5325254494, "lat": 42.3624028, "lon": -71.0857205, "tags": {"addr:city": "Cambridge", "addr:housenumber": "300", "addr:postcode": "02142", "addr:state": "MA", "addr:street": "Main Street", "alt_name": "Kendall/MIT", "internet_access": "no", "name": "Kendall/MIT", "network": "MBTA", "network:guid": "US-MA-MBTA", "network:short": "MBTA", "network:wikidata": "Q171985", "network:wikipedia": "en:Massachusetts Bay Transportation Authority", "operator": "Massachusetts Bay Transportation Authority", "operator:short": "MBTA", "operator:wikidata": "Q171985", "public_transport": "station", "railway": "station", "station": "subway", "subway": "yes", "train": "yes", "wheelchair": "yes", "wikidata": "Q533238"}}, {"type": "node", "id": 5331827938, "lat": 42.2075707, "lon": -71.0016289, "tags": {"addr:city": "Braintree", "addr:housenumber": "197", "addr:state": "MA", "addr:street": "Ivory Street", "name": "Braintree", "network": "MBTA", "network:wikidata": "Q171985", "operator": "Massachusetts Bay Transportation Authority", "operator:short": "MBTA", "operator:wikidata": "Q171985", "public_transport": "station", "railway": "station", "station": "subway", "subway": "yes", "train": "yes", "website": "https://www.mbta.com/", "wheelchair": "yes", "wikidata": "Q4558691", "wikipedia": "en:Braintree station (MBTA)"}}, {"type": "node", "id": 5331891587, "lat": 42.3612148, "lon": -71.0714527, "tags": {"internet_access": "no", "name": "Charles/MGH", "network": "MBTA", "network:guid": "US-MA-MBTA", "network:short": "MBTA", "network:wikidata": "Q171985", "network:wikipedia": "en:Massachusetts Bay Transportation Authority", "operator": "Massachusetts Bay Transportation Authority", "operator:short": "MBTA", "operator:wikidata": "Q171985", "public_transport": "station", "railway": "station", "smoking": "no", "station": "subway", "subway": "yes", "train": "yes", "url": "http://www.mbta.com/schedules_and_maps/subway/lines/stations/?stopId=11048", "wheelchair": "yes", "wikidata": "Q584412", "wikipedia": "en:Charles/MGH station"}}, {"type": "node", "id": 5331923416, "lat": 42.3961502, "lon": -71.1406803, "tags": {"massgis:geom_id": "4", "name": "Alewife", "network": "MBTA", "network:guid": "US-MA-MBTA", "network:short": "MBTA", "network:wikidata": "Q171985", "network:wikipedia": "en:Massachusetts Bay Transportation Authority", "operator": "Massachusetts Bay Transportation Authority", "operator:short": "MBTA", "operator:wikidata": "Q171985", "public_transport": "station", "railway": "station", "station": "subway", "subway": "yes", "train": "yes", "url": "http://www.mbta.com/schedules_and_maps/subway/lines/stations/?stopId=10029", "wheelchair": "yes", "wikidata": "Q4678452"}}, {"type": "node", "id": 5331945814, "lat": 42.3968234, "lon": -71.1226481, "tags": {"massgis:geom_id": "115", "name": "Davis", "network": "MBTA", "network:wikidata": "Q171985", "operator": "Massachusetts Bay Transportation Authority", "operator:short": "MBTA", "operator:wikidata": "Q171985", "public_transport": "station", "railway": "station", "station": "subway", "subway": "yes", "train": "yes", "url": "http://www.mbta.com/schedules_and_maps/subway/lines/stations/?stopId=11404", "wheelchair": "yes", "wikidata": "Q4845885"}}, {"type": "node", "id": 5331967896, "lat": 42.3525085, "lon": -71.0549447, "tags": {"addr:city": "Boston", "addr:postcode": "02110", "addr:state": "MA", "name": "South Station", "network": "MBTA", "network:guid": "US-MA-MBTA", "network:short": "MBTA", "network:wikidata": "Q171985", "network:wikipedia": "en:Massachusetts Bay Transportation Authority", "operator": "Massachusetts Bay Transportation Authority", "operator:short": "MBTA", "operator:wikidata": "Q171985", "public_transport": "station", "railway": "station", "station": "subway", "subway": "yes", "train": "yes", "website": "https://www.mbta.com/", "wheelchair": "yes", "wikidata": "Q7568548", "wikipedia": "en:South Station (MBTA station)"}}, {"type": "node", "id": 5331978048, "lat": 42.3554309, "lon": -71.0605001, "tags": {"addr:city": "Boston", "addr:postcode": "02108", "addr:state": "MA", "addr:street": "Washington Street", "air_conditioning": "no", "bicycle": "dismount", "colour": "orange;red", "foot": "yes", "indoor": "yes", "internet_access": "no", "layer": "-1", "level": "-1;-2", "location": "underground", "motor_vehicle": "no", "name": "Downtown Crossing", "network": "MBTA", "network:wikidata": "Q171985", "operator": "Massachusetts Bay Transportation Authority", "operator:short": "MBTA", "operator:wikidata": "Q171985", "phone": "+1-617-222-3200", "public_transport": "station", "railway": "station", "station": "subway", "subway": "yes", "train": "yes", "tunnel": "yes", "url": "http://www.mbta.com/schedules_and_maps/subway/lines/stations/?stopId=11473", "website": "https://www.mbta.com/stops/place-dwnxg", "wheelchair": "yes", "wikidata": "Q2920811", "wikipedia": "en:Downtown Crossing station"}}, {"type": "node", "id": 5331996285, "lat": 42.3563732, "lon": -71.0624614, "tags": {"addr:city": "Boston", "addr:postcode": "02108", "addr:state": "MA", "air_conditioning": "no", "colour": "red;green", "internet_access": "no", "level": "-1;-2", "light_rail": "yes", "massgis:geom_id": "73", "name": "Park Street", "network": "MBTA", "network:wikidata": "Q171985", "operator": "Massachusetts Bay Transportation Authority", "operator:short": "MBTA", "operator:wikidata": "Q171985", "phone": "+1-617-222-3200", "public_transport": "station", "railway": "station", "start_date": "1897-09-03", "station": "subway", "subway": "yes", "train": "yes", "url": "http://www.mbta.com/schedules_and_maps/subway/lines/stations/?stopId=13771", "website": "https://www.mbta.com/stops/place-pktrm", "wheelchair": "yes", "wikidata": "Q4846582", "wikipedia": "en:Park Street station (MBTA)"}}, {"type": "node", "id": 5333733253, "lat": 42.3883838, "lon": -71.1190344, "tags": {"addr:city": "Cambridge", "addr:state": "MA", "addr:street": "Massachusetts Avenue", "massgis:geom_id": "5", "name": "Porter", "network": "MBTA", "network:guid": "US-MA-MBTA", "network:short": "MBTA", "network:wikidata": "Q171985", "network:wikipedia": "en:Massachusetts Bay Transportation Authority", "operator": "Massachusetts Bay Transportation Authority", "operator:short": "MBTA", "operator:wikidata": "Q171985", "public_transport": "station", "railway": "station", "station": "subway", "subway": "yes", "toilets:wheelchair": "yes", "train": "yes", "url": "http://www.mbta.com/schedules_and_maps/subway/lines/stations/?stopId=13912", "wheelchair": "yes", "wifi": "no", "wikidata": "Q5159619"}}, {"type": "node", "id": 5333753296, "lat": 42.3205425, "lon": -71.0523783, "tags": {"addr:city": "Boston", "addr:housenumber": "599", "addr:state": "MA", "addr:street": "Old Colony Avenue", "name": "JFK/UMass", "network": "MBTA", "network:guid": "US-MA-MBTA", "network:short": "MBTA", "network:wikidata": "Q171985", "network:wikipedia": "en:Massachusetts Bay Transportation Authority", "operator": "Massachusetts Bay Transportation Authority", "operator:short": "MBTA", "operator:wikidata": "Q171985", "public_transport": "station", "railway": "station", "station": "subway", "subway": "yes", "website": "https://www.mbta.com/", "wheelchair": "yes", "wikidata": "Q5691944", "wikipedia": "en:JFK/UMass station"}}, {"type": "node", "id": 5333800946, "lat": 42.3499964, "lon": -71.0777332, "tags": {"access": "yes", "addr:city": "Boston", "addr:housenumber": "640", "addr:postcode": "02116", "addr:state": "MA", "addr:street": "Boylston Street", "air_conditioning": "no", "architect": "Fox, Jenny & Gale", "baby_feeding": "no", "bicycle": "no", "contact:twitter": "https://twitter.com/MBTA", "elevator": "wheelchair", "emergency_telephone_code": "+1-617-222-1212", "heritage:website": "http://mhc-macris.net/Details.aspx?MhcId=BOS.9015", "internet": "no", "internet_access": "no", "level": "-1", "light_rail": "yes", "lit": "yes", "location": "underground", "name": "Copley", "network": "MBTA", "network:guid": "US-MA-MBTA", "network:short": "MBTA", "network:wikidata": "Q171985", "network:wikipedia": "en:Massachusetts Bay Transportation Authority", "operator": "Massachusetts Bay Transportation Authority", "operator:short": "MBTA", "operator:wikidata": "Q171985", "parking": "no", "phone": "+1-617-222-3200", "phone:elevator": "+1-617-222-2828", "public_transport": "station", "railway": "station", "start_date": "1914-10-03", "station": "light_rail", "supervised": "yes", "tracks": "2", "train": "yes", "website": "https://www.mbta.com/stops/place-coecl", "wheelchair": "yes", "wikidata": "Q5168628", "wikipedia": "en:Copley station"}}, {"type": "node", "id": 5333814283, "lat": 42.3667525, "lon": -71.0678231, "tags": {"light_rail": "yes", "name": "Science Park/West End", "network": "MBTA", "network:wikidata": "Q171985", "operator": "Massachusetts Bay Transportation Authority", "operator:short": "MBTA", "operator:wikidata": "Q171985", "public_transport": "station", "railway": "station", "station": "light_rail", "train": "yes", "website": "https://www.mbta.com/stops/place-spmnl", "wheelchair": "yes", "wikidata": "Q7433590", "wikimedia_commons": "Category:Science_Park_station_(MBTA)", "wikipedia": "en:Science Park station (MBTA)"}}, {"type": "node", "id": 5333825279, "lat": 42.3662875, "lon": -71.0622845, "tags": {"addr:city": "Boston", "addr:housenumber": "126", "addr:postcode": "02114", "addr:state": "MA", "addr:street": "Causeway Street", "check_date": "2024-10-23", "check_date:wheelchair": "2024-10-23", "name": "Boston North Station", "network": "Amtrak;MBTA", "operator": "Massachusetts Bay Transportation Authority", "public_transport": "station", "railway": "station", "railway:ref": "BON", "train": "yes", "website": "https://www.mbta.com/stops/place-north", "wheelchair": "yes", "wikidata": "Q54454", "wikipedia": "en:North Station"}}, {"type": "node", "id": 5333829938, "lat": 42.3613939, "lon": -71.0621197, "tags": {"access": "yes", "addr:city": "Boston", "addr:postcode": "02114", "addr:state": "MA", "addr:street": "Bowdoin Street", "air_conditioning": "no", "bicycle": "no", "bicycle_parking": "no", "check_date": "2024-05-18", "colour": "blue", "covered": "yes", "elevator": "no", "emergency_telephone_code": "+1-617-222-1212", "fee": "yes", "foot": "yes", "indoor": "yes", "internet_access": "no", "level": "-1", "lit": "yes", "location": "underground", "name": "Bowdoin", "network": "MBTA", "network:wikidata": "Q171985", "operator": "Massachusetts Bay Transportation Authority", "operator:short": "MBTA", "operator:wikidata": "Q171985", "parking": "no", "phone": "+1-617-222-3200", "platforms": "1", "public_transport": "station", "railway": "station", "smoking": "no", "start_date": "1916-03-18", "station": "subway", "subway": "yes", "surface": "concrete", "tracks": "2", "train": "yes", "website": "https://www.mbta.com/stops/place-bomnl", "wheelchair": "no", "wikidata": "Q4027126", "wikipedia": "en:Bowdoin station"}}, {"type": "node", "id": 5333844334, "lat": 42.2999988, "lon": -71.0618652, "tags": {"addr:city": "Dorchester", "addr:housenumber": "50", "addr:postcode": "02122", "addr:state": "MA", "addr:street": "Freeman Street", "check_date": "2024-05-15", "name": "Fields Corner", "network": "MBTA", "network:guid": "US-MA-MBTA", "network:short": "MBTA", "network:wikidata": "Q171985", "network:wikipedia": "en:Massachusetts Bay Transportation Authority", "operator": "Massachusetts Bay Transportation Authority", "operator:short": "MBTA", "operator:wikidata": "Q171985", "public_transport": "station", "railway": "station", "station": "subway", "subway": "yes", "train": "yes", "wheelchair": "yes", "wikidata": "Q5447200"}}, {"type": "node", "id": 5333849226, "lat": 42.2931254, "lon": -71.0657999, "tags": {"name": "Shawmut", "network": "MBTA", "network:wikidata": "Q171985", "operator": "Massachusetts Bay Transportation Authority", "operator:short": "MBTA", "operator:wikidata": "Q171985", "public_transport": "station", "railway": "station", "station": "subway", "subway": "yes", "train": "yes", "wheelchair": "yes", "wikidata": "Q7711339"}}, {"type": "node", "id": 5333849926, "lat": 42.2844329, "lon": -71.0637251, "tags": {"name": "Ashmont/Peabody Square", "network": "MBTA", "network:guid": "US-MA-MBTA", "network:short": "MBTA", "network:wikidata": "Q171985", "network:wikipedia": "en:Massachusetts Bay Transportation Authority", "operator": "Massachusetts Bay Transportation Authority", "operator:short": "MBTA", "operator:wikidata": "Q171985", "public_transport": "station", "railway": "station", "station": "subway", "subway": "yes"}}, {"type": "node", "id": 5335456568, "lat": 42.3532022, "lon": -71.064534, "tags": {"access": "yes", "addr:city": "Boston", "addr:postcode": "02116", "addr:state": "MA", "addr:street": "Boylston Street", "air_conditioning": "no", "baby_feeding": "no", "bicycle": "no", "bicycle_parking": "no", "colour": "green", "covered": "yes", "departures_board": "realtime", "foot": "yes", "historic": "yes", "indoor": "yes", "internet_access": "no", "layer": "-1", "level": "-1", "light_rail": "yes", "lit": "yes", "location": "underground", "motor_vehicle": "no", "name": "Boylston", "network": "MBTA", "network:wikidata": "Q171985", "operator": "Massachusetts Bay Transportation Authority", "operator:short": "MBTA", "operator:wikidata": "Q171985", "parking": "no", "phone": "+1-617-222-3200", "public_transport": "station", "railway": "station", "station": "light_rail", "train": "yes", "tunnel": "yes", "website": "https://www.mbta.com/stops/place-boyls", "wheelchair": "no", "wikidata": "Q4846632", "wikipedia": "en:Boylston station"}}, {"type": "node", "id": 5336614722, "lat": 42.3620711, "lon": -71.0580373, "tags": {"light_rail": "yes", "name": "Haymarket", "network": "MBTA", "network:guid": "US-MA-MBTA", "network:short": "MBTA", "network:wikidata": "Q171985", "network:wikipedia": "en:Massachusetts Bay Transportation Authority", "operator": "Massachusetts Bay Transportation Authority", "operator:short": "MBTA", "operator:wikidata": "Q171985", "public_transport": "station", "railway": "station", "station": "light_rail", "train": "yes"}}, {"type": "node", "id": 5336614723, "lat": 42.3621193, "lon": -71.0578172, "tags": {"name": "Haymarket", "network": "MBTA", "network:guid": "US-MA-MBTA", "network:short": "MBTA", "network:wikidata": "Q171985", "network:wikipedia": "en:Massachusetts Bay Transportation Authority", "operator": "Massachusetts Bay Transportation Authority", "operator:short": "MBTA", "operator:wikidata": "Q171985", "public_transport": "station", "railway": "station", "station": "subway", "subway": "yes", "train": "yes", "wheelchair": "yes", "wikidata": "Q2913373"}}, {"type": "node", "id": 5336634035, "lat": 42.3651729, "lon": -71.0603307, "tags": {"light_rail": "yes", "name": "North Station", "network": "MBTA", "network:guid": "US-MA-MBTA", "network:short": "MBTA", "network:wikidata": "Q171985", "network:wikipedia": "en:Massachusetts Bay Transportation Authority", "operator": "Massachusetts Bay Transportation Authority", "operator:short": "MBTA", "operator:wikidata": "Q171985", "public_transport": "station", "railway": "station", "station": "light_rail", "train": "yes", "wheelchair": "yes"}}, {"type": "node", "id": 5336634037, "lat": 42.3652821, "lon": -71.0601496, "tags": {"name": "North Station", "network": "MBTA", "network:guid": "US-MA-MBTA", "network:short": "MBTA", "network:wikidata": "Q171985", "network:wikipedia": "en:Massachusetts Bay Transportation Authority", "operator": "Massachusetts Bay Transportation Authority", "operator:short": "MBTA", "operator:wikidata": "Q171985", "public_transport": "station", "railway": "station", "station": "subway", "subway": "yes", "train": "yes", "wheelchair": "yes", "wikidata": "Q7057082"}}, {"type": "node", "id": 5434424090, "lat": 42.3656133, "lon": -71.0421216, "tags": {"amenity": "ferry_terminal", "ferry": "yes", "name": "Lewis Wharf Ferry Terminal", "public_transport": "station"}}, {"type": "node", "id": 5507063751, "lat": 42.3926452, "lon": -71.0772595, "tags": {"name": "Assembly", "network": "MBTA", "network:wikidata": "Q171985", "operator": "Massachusetts Bay Transportation Authority", "operator:short": "MBTA", "operator:wikidata": "Q171985", "public_transport": "station", "railway": "station", "station": "subway", "subway": "yes", "train": "yes", "wheelchair": "yes"}}, {"type": "node", "id": 5678159702, "lat": 42.0491562, "lon": -70.1819096, "tags": {"amenity": "ferry_terminal", "cargo": "passengers;bicycle", "ferry": "yes", "name": "Plymouth Ferry", "operator": "Capt John Boats", "public_transport": "station", "website": "https://www.captjohn.com/fast-ferry-ptown/"}}, {"type": "node", "id": 5746523078, "lat": 42.2836794, "lon": -71.0630699, "tags": {"light_rail": "yes", "name": "Ashmont", "network": "MBTA", "network:wikidata": "Q171985", "operator": "Massachusetts Bay Transportation Authority", "operator:short": "MBTA", "operator:wikidata": "Q171985", "public_transport": "station", "railway": "station", "station": "light_rail", "train": "yes"}}, {"type": "node", "id": 5746531568, "lat": 42.2795773, "lon": -71.060352, "tags": {"light_rail": "yes", "name": "Cedar Grove", "network": "MBTA", "network:wikidata": "Q171985", "operator": "Massachusetts Bay Transportation Authority", "operator:short": "MBTA", "operator:wikidata": "Q171985", "public_transport": "station", "railway": "station", "station": "light_rail", "train": "yes", "wikidata": "Q5056720"}}, {"type": "node", "id": 5746533839, "lat": 42.2724325, "lon": -71.0625194, "tags": {"light_rail": "yes", "name": "Butler", "network": "MBTA", "network:wikidata": "Q171985", "operator": "Massachusetts Bay Transportation Authority", "operator:short": "MBTA", "operator:wikidata": "Q171985", "public_transport": "station", "railway": "station", "station": "light_rail", "train": "yes", "wikidata": "Q5002562"}}, {"type": "node", "id": 5746539387, "lat": 42.2703406, "lon": -71.0673729, "tags": {"light_rail": "yes", "name": "Milton", "network": "MBTA", "network:wikidata": "Q171985", "operator": "Massachusetts Bay Transportation Authority", "operator:short": "MBTA", "operator:wikidata": "Q171985", "public_transport": "station", "railway": "station", "station": "light_rail", "train": "yes", "wikidata": "Q629169"}}, {"type": "node", "id": 5746544499, "lat": 42.2676149, "lon": -71.0873955, "tags": {"light_rail": "yes", "name": "Capen Street", "network": "MBTA", "network:wikidata": "Q171985", "operator": "Massachusetts Bay Transportation Authority", "operator:short": "MBTA", "operator:wikidata": "Q171985", "platforms": "2", "public_transport": "station", "railway": "station", "station": "light_rail", "train": "yes", "wikidata": "Q5035278"}}, {"type": "node", "id": 5746544500, "lat": 42.2683709, "lon": -71.0814166, "tags": {"light_rail": "yes", "name": "Valley Road", "network": "MBTA", "network:wikidata": "Q171985", "operator": "Massachusetts Bay Transportation Authority", "operator:short": "MBTA", "operator:wikidata": "Q171985", "public_transport": "station", "railway": "station", "station": "light_rail", "train": "yes", "wikidata": "Q7912191"}}, {"type": "node", "id": 5746544501, "lat": 42.2700151, "lon": -71.0735366, "tags": {"light_rail": "yes", "name": "Central Avenue", "network": "MBTA", "network:wikidata": "Q171985", "operator": "Massachusetts Bay Transportation Authority", "operator:short": "MBTA", "operator:wikidata": "Q171985", "public_transport": "station", "railway": "station", "station": "light_rail", "train": "yes", "wikidata": "Q947720"}}, {"type": "node", "id": 5889951383, "lat": 41.9418062, "lon": -71.284274, "tags": {"name": "Attleboro", "network": "MBTA", "network:wikidata": "Q171985", "operator": "Keolis", "public_transport": "station", "railway": "station", "railway:position": "mi:196.9", "train": "yes", "wikidata": "Q4818562"}}, {"type": "node", "id": 5901156227, "lat": 42.1246058, "lon": -71.1844084, "tags": {"name": "Sharon", "network": "MBTA", "network:short": "MBTA", "network:wikidata": "Q171985", "operator": "MBTA", "public_transport": "station", "railway": "station", "railway:position": "mi:210.8", "train": "yes", "wikidata": "Q7489967"}}, {"type": "node", "id": 5901169113, "lat": 42.3275642, "lon": -71.065583, "tags": {"name": "Newmarket", "network": "MBTA", "network:short": "MBTA", "network:wikidata": "Q171985", "operator": "MBTA", "operator:short": "MBTA", "operator:wikidata": "Q171985", "public_transport": "station", "railway": "station", "railway:ref": "DB-2265", "train": "yes", "wikidata": "Q12063996", "wikipedia": "en:Newmarket station (MBTA)"}}, {"type": "node", "id": 5901183548, "lat": 42.1631287, "lon": -71.1537443, "tags": {"name": "Canton Junction", "network": "MBTA", "network:short": "MBTA", "network:wikidata": "Q171985", "operator": "Massachusetts Bay Transportation Authority", "owner": "Massachusetts Bay Transportation Authority", "ownership": "state", "public_transport": "station", "railway": "station", "railway:position": "mi:213.9", "train": "yes", "wikidata": "Q5033899"}}, {"type": "node", "id": 6097540132, "lat": 42.3515458, "lon": -71.0551533, "tags": {"addr:city": "Boston", "addr:housenumber": "700", "addr:state": "MA", "addr:street": "Atlantic Avenue", "iata": "ZTO", "name": "Boston South Station", "network": "Amtrak;MBTA;CCRTA", "platforms": "13", "public_transport": "station", "railway": "station", "railway:ref": "BOS", "train": "yes", "wheelchair": "yes", "wikidata": "Q54453", "wikipedia": "en:South Station"}}, {"type": "node", "id": 6568254472, "lat": 42.3377285, "lon": -71.1419597, "tags": {"light_rail": "yes", "name": "Dean Road", "network": "MBTA", "operator": "Massachusetts Bay Transportation Authority", "operator:short": "MBTA", "operator:wikidata": "Q171985", "public_transport": "station", "railway": "halt", "station": "light_rail", "wikidata": "Q5246445"}}, {"type": "node", "id": 6571086797, "lat": 42.322596, "lon": -71.1002569, "tags": {"name": "Jackson Square", "network": "MBTA", "network:guid": "US-MA-MBTA", "network:short": "MBTA", "network:wikidata": "Q171985", "network:wikipedia": "en:Massachusetts Bay Transportation Authority", "operator": "Massachusetts Bay Transportation Authority", "operator:short": "MBTA", "operator:wikidata": "Q171985", "public_transport": "station", "railway": "station", "station": "subway", "subway": "yes", "wheelchair": "yes", "wikidata": "Q3736887"}}, {"type": "node", "id": 6574812149, "lat": 42.3939181, "lon": -71.0707033, "tags": {"amenity": "ferry_terminal", "ferry": "yes", "name": "Encore Boston Harbor Ferry Landing", "public_transport": "station"}}, {"type": "node", "id": 6574812163, "lat": 42.3503165, "lon": -71.0404592, "tags": {"amenity": "ferry_terminal", "ferry": "yes", "name": "World Trade Center (East) Ferry Terminal", "public_transport": "station"}}, {"type": "node", "id": 6710324204, "lat": 41.2851139, "lon": -70.0930168, "tags": {"amenity": "ferry_terminal", "ferry": "yes", "name": "Straight Wharf - Nantucket", "public_transport": "station"}}, {"type": "node", "id": 6790828011, "lat": 42.2041971, "lon": -72.60229, "tags": {"addr:city": "Holyoke", "addr:housenumber": "74", "addr:postcode": "01040", "addr:state": "MA", "addr:street": "Main Street", "internet_access": "no", "name": "Holyoke", "network": "Amtrak", "network:wikidata": "Q23239", "operator": "Amtrak", "public_transport": "station", "railway": "station", "railway:ref": "HLK", "train": "yes", "wikidata": "Q17182866"}}, {"type": "node", "id": 6839015879, "lat": 42.3328868, "lon": -71.2433312, "tags": {"access": "yes", "addr:city": "Newton", "addr:housenumber": "1940", "addr:postcode": "02466", "addr:state": "MA", "addr:street": "Washington Street", "air_conditioning": "no", "baby_feeding": "no", "bicycle": "no", "bicycle_parking": "yes", "colour": "green", "foot": "yes", "internet_access": "no", "level": "0", "light_rail": "yes", "lit": "yes", "location": "outdoor", "motor_vehicle": "no", "name": "Woodland", "network": "MBTA", "operator": "Massachusetts Bay Transportation Authority", "operator:short": "MBTA", "operator:wikidata": "Q171985", "parking": "multi-storey", "phone": "+1-617-222-3200", "public_transport": "station", "railway": "station", "start_date": "1959-07-04", "station": "light_rail", "tracks": "2", "website": "https://www.mbta.com/stops/place-woodl", "wheelchair": "yes", "wikidata": "Q8032813", "wikipedia": "en:Woodland station"}}, {"type": "node", "id": 6839015880, "lat": 42.3258346, "lon": -71.2305997, "tags": {"access": "yes", "addr:city": "Waban", "addr:postcode": "02468", "addr:state": "MA", "air_conditioning": "yes", "bicycle": "no", "bicycle_parking": "yes", "colour": "green", "covered": "no", "foot": "yes", "internet_access": "no", "level": "0", "light_rail": "yes", "lit": "yes", "location": "outdoor", "motor_vehicle": "no", "name": "Waban", "network": "MBTA", "network:wikidata": "Q171985", "operator": "Massachusetts Bay Transportation Authority", "operator:short": "MBTA", "operator:wikidata": "Q171985", "parking": "yes", "phone": "+1-617-222-3200", "public_transport": "station", "railway": "station", "station": "light_rail", "train": "yes", "website": "https://www.mbta.com/stops/place-waban", "wheelchair": "limited", "wikidata": "Q7958602", "wikipedia": "en:Waban station"}}, {"type": "node", "id": 6839015882, "lat": 42.3189632, "lon": -71.2165133, "tags": {"access": "yes", "addr:city": "Newton", "addr:housenumber": "248", "addr:postcode": "02461", "addr:state": "MA", "addr:street": "Lincoln Street", "air_conditioning": "no", "bicycle": "no", "bicycle_parking": "yes", "colour": "green", "covered": "no", "foot": "yes", "internet_access": "no", "level": "0", "light_rail": "yes", "lit": "yes", "location": "outdoor", "motor_vehicle": "no", "name": "Eliot", "network": "MBTA", "network:wikidata": "Q171985", "operator": "Massachusetts Bay Transportation Authority", "operator:short": "MBTA", "operator:wikidata": "Q171985", "parking": "yes", "public_transport": "station", "railway": "station", "start_date": "1959-07-04", "station": "light_rail", "train": "yes", "website": "https://www.mbta.com/stops/place-eliot", "wheelchair": "limited", "wheelchair:description": "train_station", "wikidata": "Q5361212", "wikipedia": "en:Eliot station"}}, {"type": "node", "id": 6839025361, "lat": 42.3373847, "lon": -71.2525527, "tags": {"addr:city": "Newton", "addr:housenumber": "367", "addr:postcode": "02466", "addr:state": "MA", "addr:street": "Grove Street", "air_conditioning": "no", "bicycle": "no", "bicycle_parking": "yes", "colour": "green", "covered": "yes", "emergency_telephone_code": "+1-617-222-1212", "fee": "yes", "foot": "yes", "indoor": "no", "internet_access": "no", "level": "0", "light_rail": "yes", "lit": "yes", "location": "outdoor", "name": "Riverside", "network": "MBTA", "network:wikidata": "Q171985", "operator": "Massachusetts Bay Transportation Authority", "operator:short": "MBTA", "operator:type": "government", "operator:wikidata": "Q171985", "parking": "surface", "phone": "+1-617-222-3200", "public_transport": "station", "railway": "station", "smoking": "no", "start_date": "1959-07-04", "station": "light_rail", "supervised": "yes", "tracks": "2", "train": "yes", "website": "https://www.mbta.com/stops/subway", "wheelchair": "yes", "wikidata": "Q7338413", "wikipedia": "en:Riverside station (MBTA)"}}, {"type": "node", "id": 6841378962, "lat": 42.3417067, "lon": -71.1099518, "tags": {"access": "yes", "addr:city": "Brookline", "addr:housenumber": "30", "addr:postcode": "02446", "addr:state": "MA", "addr:street": "Chapel Street", "air_conditioning": "no", "bicycle": "no", "bicycle_parking": "yes", "blind": "yes", "colour": "green", "covered": "no", "ele": "13", "elevator": "no", "fee": "yes", "foot": "yes", "gnis:feature_id": "612950", "indoor": "no", "internet_access": "no", "level": "0", "light_rail": "yes", "lit": "yes", "location": "outdoor", "name": "Longwood", "network": "MBTA", "network:guid": "US-MA-MBTA", "network:short": "MBTA", "network:wikidata": "Q171985", "network:wikipedia": "en:Massachusetts Bay Transportation Authority", "operator": "Massachusetts Bay Transportation Authority", "operator:short": "MBTA", "operator:type": "government", "operator:wikidata": "Q171985", "parking": "yes", "public_transport": "station", "railway": "station", "start_date": "1959-07-04", "station": "light_rail", "supervised": "no", "tracks": "2", "train": "yes", "website": "https://www.mbta.com/stops/place-longw", "wheelchair": "yes", "wikidata": "Q9023650", "wikipedia": "en:Longwood station (MBTA)"}}, {"type": "node", "id": 6841380701, "lat": 42.331321, "lon": -71.1267628, "tags": {"access": "yes", "addr:city": "Brookline", "addr:postcode": "02445", "addr:state": "MA", "addr:street": "Tappan Street", "air_conditioning": "no", "baby_feeding": "no", "bicycle": "no", "bicycle_parking": "yes", "colour": "green", "covered": "no", "elevator": "no", "emergency_telephone_code": "+1-617-222-1212", "fee": "yes", "foot": "yes", "indoor": "no", "internet_access": "no", "level": "0", "light_rail": "yes", "lit": "yes", "location": "outdoor", "name": "Brookline Hills", "network": "MBTA", "network:wikidata": "Q171985", "operator": "Massachusetts Bay Transportation Authority", "operator:short": "MBTA", "operator:type": "government", "operator:wikidata": "Q171985", "parking": "yes", "phone": "+1-617-222-3200", "public_transport": "station", "railway": "station", "start_date": "1959-07-04", "station": "light_rail", "supervised": "no", "tracks": "2", "train": "yes", "website": "https://www.mbta.com/stops/place-brkhl", "wheelchair": "yes", "wikidata": "Q975964", "wikipedia": "en:Brookline Hills station"}}, {"type": "node", "id": 6841516670, "lat": 42.3357966, "lon": -71.1405583, "tags": {"addr:city": "Brookline", "addr:housenumber": "124", "addr:postcode": "02445", "addr:state": "MA", "addr:street": "Beaconsfield Road", "air_conditioning": "no", "covered": "no", "internet_access": "no", "light_rail": "yes", "lit": "yes", "location": "outdoor", "name": "Beaconsfield", "network": "MBTA", "network:wikidata": "Q171985", "operator": "Massachusetts Bay Transportation Authority", "operator:short": "MBTA", "operator:wikidata": "Q171985", "phone": "+1-617-222-3200", "public_transport": "station", "railway": "station", "station": "light_rail", "train": "yes", "website": "https://www.mbta.com/stops/place-bcnfd", "wheelchair": "yes", "wikidata": "Q4876022", "wikipedia": "en:Beaconsfield station (MBTA)"}}, {"type": "node", "id": 6841541263, "lat": 42.3224872, "lon": -71.2054057, "tags": {"addr:city": "Newton", "addr:housenumber": "60", "addr:postcode": "02461", "addr:state": "MA", "addr:street": "Station Avenue", "air_conditioning": "no", "baby_feeding": "no", "bicycle": "no", "bicycle_parking": "stands", "covered": "no", "foot": "yes", "internet_access": "no", "level": "0", "light_rail": "yes", "location": "outdoor", "motor_vehicle": "no", "name": "Newton Highlands", "network": "MBTA", "operator": "Massachusetts Bay Transportation Authority", "operator:short": "MBTA", "operator:wikidata": "Q171985", "parking": "no", "public_transport": "station", "railway": "station", "start_date": "1959-07-04", "station": "light_rail", "website": "https://www.mbta.com/stops/place-newtn", "wheelchair": "yes", "wheelchair:description": "train_station", "wikidata": "Q5639374", "wikipedia": "en:Newton Highlands station"}}, {"type": "node", "id": 6841541265, "lat": 42.3294468, "lon": -71.1923842, "tags": {"light_rail": "yes", "name": "Newton Centre", "network": "MBTA", "network:guid": "US-MA-MBTA", "network:short": "MBTA", "network:wikidata": "Q171985", "network:wikipedia": "en:Massachusetts Bay Transportation Authority", "operator": "Massachusetts Bay Transportation Authority", "operator:short": "MBTA", "operator:wikidata": "Q171985", "public_transport": "station", "railway": "station", "station": "light_rail", "toilets:wheelchair": "no", "wheelchair": "limited", "wheelchair:description": "train_station", "wikidata": "Q7020162", "wikipedia": "en:Newton Centre station"}}, {"type": "node", "id": 6841546930, "lat": 42.3351797, "lon": -71.1482358, "tags": {"access": "yes", "addr:city": "Brookline", "addr:housenumber": "401", "addr:postcode": "02445", "addr:state": "MA", "addr:street": "Chestnut Hill Avenue", "air_conditioning": "no", "colour": "green", "covered": "no", "internet_access": "no", "light_rail": "yes", "lit": "yes", "location": "outdoor", "name": "Reservoir", "network": "MBTA", "network:wikidata": "Q171985", "operator": "Massachusetts Bay Transportation Authority", "operator:short": "MBTA", "operator:wikidata": "Q171985", "parking": "no", "phone": "+1-617-222-3200", "public_transport": "station", "railway": "station", "start_date": "1959-07-04", "station": "light_rail", "tracks": "2", "train": "yes", "website": "https://www.mbta.com/stops/place-rsmnl", "wheelchair": "yes", "wikidata": "Q15701689", "wikipedia": "en:Reservoir station (MBTA)"}}, {"type": "node", "id": 6841549328, "lat": 42.3267628, "lon": -71.1646379, "tags": {"addr:city": "Chestnut Hill", "addr:postcode": "02467", "addr:state": "MA", "addr:street": "Hammond Street", "air_conditioning": "no", "bicycle_parking": "yes", "contact:phone": "+1-617-222-3200", "internet_access": "no", "level": "0", "light_rail": "yes", "lit": "yes", "location": "outdoor", "name": "Chestnut Hill", "network": "MBTA", "network:guid": "US-MA-MBTA", "network:short": "MBTA", "network:wikidata": "Q171985", "network:wikipedia": "en:Massachusetts Bay Transportation Authority", "operator": "Massachusetts Bay Transportation Authority", "operator:short": "MBTA", "operator:wikidata": "Q171985", "parking": "surface", "phone": "+1-617-222-3200", "public_transport": "station", "railway": "station", "start_date": "1959-07-04", "station": "light_rail", "tracks": "2", "train": "yes", "website": "https://www.mbta.com/stops/place-chhil", "wheelchair": "limited", "wheelchair:description": "train_station", "wikidata": "Q5093942", "wikimedia_commons": "File:Inbound train at Chestnut Hill station, December 2015.JPG", "wikipedia": "en:Chestnut Hill station (MBTA)"}}, {"type": "node", "id": 6853725315, "lat": 42.3596262, "lon": -71.059488, "tags": {"alt_name": "Gov't Ctr", "architect": "HDR, Inc.", "contact:website": "https://www.mbta.com/stops/place-gover", "light_rail": "yes", "name": "Government Center", "network": "MBTA", "network:wikidata": "Q171985", "operator": "Massachusetts Bay Transportation Authority", "operator:short": "MBTA", "operator:wikidata": "Q171985", "public_transport": "station", "railway": "station", "station": "subway", "subway": "yes", "train": "yes", "website": "https://www.mbta.com/stops/place-gover", "wheelchair": "yes", "wikidata": "Q3021798", "wikipedia": "en:Government Center station (MBTA)"}}, {"type": "node", "id": 6853938407, "lat": 42.3451868, "lon": -71.1045987, "tags": {"light_rail": "yes", "name": "Fenway", "network": "MBTA", "network:wikidata": "Q171985", "operator": "Massachusetts Bay Transportation Authority", "operator:short": "MBTA", "operator:wikidata": "Q171985", "public_transport": "station", "railway": "station", "station": "light_rail", "train": "yes", "wheelchair": "yes", "wikidata": "Q5443657"}}, {"type": "node", "id": 6908721264, "lat": 42.3711832, "lon": -71.0452879, "tags": {"amenity": "ferry_terminal", "ferry": "yes", "name": "East Boston 6 New Street Ferry Landing", "public_transport": "station"}}, {"type": "node", "id": 6997716178, "lat": 42.5171934, "lon": -71.144544, "tags": {"addr:state": "MA", "alt_name": "Woburn-Anderson", "name": "Anderson RTC", "network": "Amtrak;MBTA", "public_transport": "station", "railway": "station", "railway:ref": "WOB", "train": "yes", "wikidata": "Q800386"}}, {"type": "node", "id": 6997716179, "lat": 42.7668803, "lon": -71.0883223, "tags": {"addr:city": "Bradford", "addr:housenumber": "10", "addr:postcode": "01835", "addr:street": "Railroad Avenue", "name": "Bradford", "network": "MBTA", "network:wikidata": "Q171985", "operator": "MBTA", "public_transport": "station", "railway": "station", "train": "yes", "wheelchair": "yes", "wikidata": "Q4954571", "wikipedia": "en:Bradford station"}}, {"type": "node", "id": 6997818516, "lat": 42.2104244, "lon": -71.1475387, "tags": {"addr:city": "Westwood", "addr:housenumber": "50", "addr:postcode": "02090-2307", "addr:state": "MA", "addr:street": "University Avenue", "name": "Route 128", "network": "Amtrak;MBTA", "public_transport": "station", "railway": "station", "railway:position": "mi:217.3", "railway:ref": "RTE", "train": "yes", "wheelchair": "yes", "wikidata": "Q7371370"}}, {"type": "node", "id": 6997879169, "lat": 42.5853984, "lon": -72.600803, "tags": {"addr:city": "Greenfield", "addr:housenumber": "12", "addr:postcode": "01301", "addr:state": "MA", "addr:street": "Olive Street", "name": "Greenfield", "network": "Amtrak", "network:wikidata": "Q23239", "operator": "Amtrak", "public_transport": "station", "railway": "station", "railway:ref": "GFD", "train": "yes", "website": "https://www.amtrak.com/stations/gfd", "wikidata": "Q6262459"}}, {"type": "node", "id": 7005044393, "lat": 41.9848989, "lon": -70.9653262, "tags": {"name": "Bridgewater", "network": "MBTA", "public_transport": "station", "railway": "station", "train": "yes", "wikidata": "Q4966830"}}, {"type": "node", "id": 7005044395, "lat": 42.2379268, "lon": -71.1335939, "tags": {"addr:city": "Boston", "addr:housenumber": "1800", "addr:postcode": "02136-2460", "addr:state": "MA", "addr:street": "Hyde Park Avenue", "name": "Readville", "network": "MBTA", "network:guid": "US-MA-MBTA", "network:short": "MBTA", "network:wikidata": "Q171985", "network:wikipedia": "en:Massachusetts Bay Transportation Authority", "operator": "MBTA", "operator:short": "MBTA", "operator:wikidata": "Q171985", "public_transport": "station", "railway": "station", "railway:ref": "DB-0095", "train": "yes", "website": "https://www.mbta.com/", "wheelchair": "yes", "wikidata": "Q7300625", "wikipedia": "en:Readville station"}}, {"type": "node", "id": 7005044396, "lat": 42.2761041, "lon": -71.4200485, "tags": {"addr:city": "Framingham", "addr:housenumber": "417", "addr:postcode": "01702", "addr:state": "MA", "addr:street": "Waverly Street", "name": "Framingham", "network": "Amtrak;MBTA", "operator": "MBTA", "public_transport": "station", "railway": "station", "railway:ref": "FRA", "train": "yes", "wikidata": "Q5478014", "wikipedia": "en:Framingham station"}}, {"type": "node", "id": 7005054559, "lat": 42.253865, "lon": -71.1191616, "tags": {"departures_board": "timetable", "internet_access": "no", "name": "Fairmount", "network": "MBTA", "network:short": "MBTA", "network:wikidata": "Q171985", "operator": "MBTA", "operator:short": "MBTA", "operator:wikidata": "Q171985", "public_transport": "station", "railway": "station", "railway:position": "mi:220.5", "train": "yes", "wheelchair": "limited", "wikidata": "Q5430625"}}, {"type": "node", "id": 7005054561, "lat": 42.2802855, "lon": -71.0860598, "tags": {"addr:city": "Mattapan", "addr:housenumber": "865", "addr:postcode": "02126", "addr:street": "Morton Street", "name": "Morton Street", "network": "MBTA", "network:guid": "US-MA-MBTA", "network:short": "MBTA", "network:wikidata": "Q171985", "network:wikipedia": "en:Massachusetts Bay Transportation Authority", "operator": "MBTA", "operator:short": "MBTA", "operator:wikidata": "Q171985", "public_transport": "station", "railway": "station", "railway:position": "mi:223.0", "train": "yes", "website": "https://www.mbta.com/", "wheelchair": "yes", "wikidata": "Q6914948", "wikipedia": "en:Morton Street station"}}, {"type": "node", "id": 7005054562, "lat": 42.2935384, "lon": -71.0783921, "tags": {"addr:city": "Dorchester", "addr:state": "MA", "name": "Talbot Avenue", "network": "MBTA", "network:guid": "US-MA-MBTA", "network:short": "MBTA", "network:wikidata": "Q171985", "network:wikipedia": "en:Massachusetts Bay Transportation Authority", "operator": "MBTA", "operator:short": "MBTA", "operator:wikidata": "Q171985", "public_transport": "station", "railway": "station", "train": "yes", "website": "https://www.mbta.com/", "wikidata": "Q7679009", "wikipedia": "en:Talbot Avenue station"}}, {"type": "node", "id": 7005054563, "lat": 42.3050204, "lon": -71.076928, "tags": {"addr:state": "MA", "name": "Four Corners/Geneva", "network": "MBTA", "network:short": "MBTA", "network:wikidata": "Q171985", "operator": "MBTA", "operator:short": "MBTA", "public_transport": "station", "railway": "station", "train": "yes", "website": "https://www.mbta.com/", "wheelchair": "yes", "wikidata": "Q5475092", "wikipedia": "en:Four Corners/Geneva station"}}, {"type": "node", "id": 7005054564, "lat": 42.3191048, "lon": -71.0686255, "tags": {"addr:city": "Dorchester", "addr:housenumber": "691", "addr:state": "MA", "addr:street": "Dudley Street", "name": "Uphams Corner", "network": "MBTA", "network:guid": "US-MA-MBTA", "network:short": "MBTA", "network:wikidata": "Q171985", "network:wikipedia": "en:Massachusetts Bay Transportation Authority", "operator": "MBTA", "operator:short": "MBTA", "operator:wikidata": "Q171985", "public_transport": "station", "railway": "station", "railway:position": "mi:225.8", "train": "yes", "website": "https://www.mbta.com/", "wikidata": "Q7898298", "wikipedia": "en:Uphams Corner station"}}, {"type": "node", "id": 7005236177, "lat": 41.8781758, "lon": -70.9183145, "tags": {"addr:city": "Lakeville", "addr:housenumber": "125", "addr:postcode": "02347", "addr:state": "MA", "addr:street": "Commercial Drive", "name": "Lakeville", "network": "MBTA;CCRTA", "operator": "MBTA", "public_transport": "station", "railway": "station", "train": "yes", "website": "https://www.mbta.com/", "wheelchair": "yes", "wikidata": "Q6841709", "wikipedia": "en:Middleborough/Lakeville station"}}, {"type": "node", "id": 7005236178, "lat": 42.0145529, "lon": -70.8240284, "tags": {"addr:city": "Halifax", "addr:housenumber": "6", "addr:postcode": "02338-1020", "addr:street": "Garden Road", "name": "Halifax", "network": "MBTA", "network:guid": "US-MA-MBTA", "network:short": "MBTA", "network:wikidata": "Q171985", "network:wikipedia": "en:Massachusetts Bay Transportation Authority", "operator": "MBTA", "operator:wikidata": "Q171985", "public_transport": "station", "railway": "station", "train": "yes", "wheelchair": "yes", "wikidata": "Q5642109", "wikipedia": "en:Halifax station (MBTA)"}}, {"type": "node", "id": 7005236179, "lat": 42.1565025, "lon": -71.0272597, "tags": {"name": "Holbrook/Randolph", "network": "MBTA", "network:wikidata": "Q171985", "operator": "MBTA", "public_transport": "station", "railway": "station", "train": "yes", "wikidata": "Q5878720"}}, {"type": "node", "id": 7005236180, "lat": 42.1547461, "lon": -70.9531903, "tags": {"addr:city": "Weymouth", "addr:housenumber": "89", "addr:postcode": "02190-4100", "addr:street": "Trotter Road", "name": "South Weymouth", "network": "MBTA", "network:guid": "US-MA-MBTA", "network:short": "MBTA", "network:wikidata": "Q171985", "network:wikipedia": "en:Massachusetts Bay Transportation Authority", "operator": "MBTA", "operator:wikidata": "Q171985", "public_transport": "station", "railway": "station", "train": "yes", "wheelchair": "yes", "wikidata": "Q7568926"}}, {"type": "node", "id": 7005236181, "lat": 42.0825194, "lon": -70.9232937, "tags": {"name": "Whitman", "network": "MBTA", "network:wikidata": "Q171985", "operator": "MBTA", "public_transport": "station", "railway": "station", "train": "yes", "wikidata": "Q7996606"}}, {"type": "node", "id": 7005236182, "lat": 41.9776293, "lon": -70.7217964, "tags": {"addr:city": "Kingston", "addr:housenumber": "194", "addr:postcode": "02364-2249", "addr:state": "MA", "addr:street": "Marion Drive", "name": "Kingston", "network": "MBTA", "network:wikidata": "Q171985", "note": "Always double check weekend hours.", "operator": "MBTA", "phone": "+1 617-222-3200", "public_transport": "station", "railway": "station", "source": "http://www.mbta.com/", "train": "yes", "website": "https://en.wikipedia.org/wiki/Kingston/Route_3_(MBTA_station)", "wheelchair": "yes", "wikidata": "Q6413451", "wikipedia": "en:Old Colony Lines (MBTA)"}}, {"type": "node", "id": 7005236183, "lat": 42.0437997, "lon": -70.8820248, "tags": {"addr:city": "Hanson", "addr:housenumber": "1070", "addr:postcode": "02341-1543", "addr:street": "Main Street", "name": "Hanson", "network": "MBTA", "operator": "MBTA", "public_transport": "station", "railway": "station", "train": "yes", "wheelchair": "yes", "wikidata": "Q5651174", "wikipedia": "en:Hanson station"}}, {"type": "node", "id": 7005236184, "lat": 42.0609911, "lon": -71.0111112, "tags": {"name": "Campello", "network": "MBTA", "network:wikidata": "Q171985", "public_transport": "station", "railway": "station", "train": "yes", "wikidata": "Q5028255"}}, {"type": "node", "id": 7005274151, "lat": 42.2441681, "lon": -70.8375167, "tags": {"addr:city": "Cohasset", "addr:housenumber": "115", "addr:street": "Chief Justice Cushing Highway", "name": "Cohasset", "network": "MBTA", "operator": "MBTA", "public_transport": "station", "railway": "station", "train": "yes", "website": "https://www.mbta.com/", "wikidata": "Q5141306", "wikipedia": "en:Cohasset station"}},